Name,Class,Latitude,Longitude
Ajuntament d’Arnes ,CasaForta,40.909915,0.260738
Antiga presó d’Horta,CasaForta,40.953871,0.316882
Ca La Pruna,CasaForta,41.970474,3.144429
Ca l’Amar de la Torre,CasaForta,41.600727,2.54599
Cal Ferrer de les Torres,CasaForta,42.165833,2.748056
Cal Llossaire,CasaForta,42.25481,2.888873
Cal Marquès,CasaForta,42.315613,3.116603
Cal Ribalta de la Fortesa,CasaForta,41.747008,1.537831
Can Bofí de la Torre,CasaForta,42.172361,2.784028
Can Cabanyes,CasaForta,41.56496,2.411024
Can Draper,CasaForta,41.662028,2.264639
Can Fàbrega,CasaForta,41.975311,3.000365
Can Figa,CasaForta,41.959408,3.125044
Can Frigola,CasaForta,41.887901,2.873931
Can Mallol de la Torre,CasaForta,41.60627,2.542222
Can Mas Grau,CasaForta,41.89822,2.80468
Can Milans Perejordi,CasaForta,41.572224,2.526389
Can Puig de la Bellacasa,CasaForta,42.122778,2.779444
Can Saló de Casavells,CasaForta,42.00003,3.032056
Can Savall de Planils,CasaForta,41.997769,2.993183
Can Savalls,CasaForta,41.86198,3.073471
Can Vinyals,CasaForta,42.054626,2.964018
Casa Caramany,CasaForta,42.18866,3.082242
Casa de Santa Anna de Merola,CasaForta,41.631919,2.669189
Casa del Delme,CasaForta,42.148975,3.026894
Casa del Marquès de Camps,CasaForta,41.973665,2.776117
Casa del Senyor,CasaForta,41.440102,1.865782
Casa del Senyor del Mal Ús,CasaForta,41.863468,3.074483
Casa dels Templers,CasaForta,41.943459,2.786598
Casa forta de la Campanera ,CasaForta,41.367766,1.473814
Casa Forta de la Santa Creu,CasaForta,42.006879,1.142262
Casa forta de Miravet,CasaForta,42.108574,0.840451
Casa forta de Torreferrada,CasaForta,41.911842,2.174797
Casa forta del Mas Pontons,CasaForta,41.43536,1.536426
Casa Gòtica,CasaForta,41.553864,2.400558
Casa Pairal del Noguer de Segueró,CasaForta,42.242313,2.747365
Casa Periques,CasaForta,41.977138,1.885189
Casa Pol,CasaForta,41.500361,2.321917
Casa Portolà,CasaForta,42.700672,0.872541
Casa Tristany,CasaForta,41.87065,1.540239
Casal de Bellpuig,CasaForta,41.920376,2.321852
Casal de Blancafort,CasaForta,41.699814,2.283507
Casal de Mont-ral,CasaForta,41.952003,2.243831
Casal de Mont-rodon,CasaForta,41.864944,2.266684
Casal de Portavella,CasaForta,42.136467,2.137093
Casal de Rosanes,CasaForta,41.663063,2.281562
Casal del Puig de la Balma,CasaForta,41.694167,1.961944
Casal del Villar,CasaForta,41.681576,2.170028
Casal d’Espinzella,CasaForta,41.854733,2.338403
Castell de Castellnou de la Plana,CasaForta,41.802586,2.103294
Castell-palau dels Montpalau,CasaForta,42.21376,2.64182
Castellet de Guanta,CasaForta,41.640259,2.114042
Cooperativa,CasaForta,41.646164,2.741392
Doldellops,CasaForta,41.285948,1.220721
El Casalot,CasaForta,41.797573,1.634313
El Castellot de Marcovau,CasaForta,41.868127,1.033297
El Farell,CasaForta,41.680556,1.918667
El Saiol Comtal,CasaForta,41.806889,2.096216
Els Castellots,CasaForta,41.483849,1.559879
Força de Bellpuig,CasaForta,42.241894,2.617112
La Casa Murada,CasaForta,41.273705,1.528242
La Cortada dels Llucs,CasaForta,42.008037,1.979072
La Guaita de Pregones,CasaForta,41.970546,1.946183
La Marineta,CasaForta,41.580292,2.24666
La Sala,CasaForta,41.818272,1.72922
La Sala,CasaForta,42.338482,2.30184
La Sala,CasaForta,41.804333,2.28475
La Sala,CasaForta,41.840639,2.359222
La Torre,CasaForta,41.959911,2.738425
La Torreta,CasaForta,42.010083,1.565306
Les Romagueres,CasaForta,41.95773,2.56171
Mas Alrà,CasaForta,41.878853,2.755068
Mas Bellver,CasaForta,42.08733,2.91727
Mas Bru,CasaForta,41.988276,2.798918
Mas Calbó ,CasaForta,41.109526,1.124553
Mas de la Closa,CasaForta,41.825908,1.785804
Mas de la Muga,CasaForta,41.223885,1.565898
Mas de la Torre d’en Rosés,CasaForta,41.984662,2.845154
Mas de Nuix,CasaForta,41.623671,1.285767
Mas de Palaudàries,CasaForta,41.607941,2.200055
Mas els Felius,CasaForta,41.980353,2.240835
Mas Reixach,CasaForta,41.828333,2.985833
Mas Serra de Degotalls,CasaForta,41.989483,1.988893
Mas Soler,CasaForta,41.18802,1.407317
Mas Torretes,CasaForta,41.831194,3.0835
Masia Casanova,CasaForta,42.002641,1.457106
Masia de Cal Cisteller,CasaForta,41.959419,1.0428
Masia de les Feixes de Coaner,CasaForta,41.841664,1.688214
Masia de Mas Moles,CasaForta,41.505657,2.343073
Masia fortificada de Can Biel,CasaForta,41.960417,2.654083
Masia fortificada de Can Planes,CasaForta,41.952694,2.651667
Masia Les Torres,CasaForta,41.792167,1.927917
Masmunter,CasaForta,41.107903,0.953069
Nucli de Mas de Bondia,CasaForta,41.605299,1.191984
Presó o Casa de la Castellania,CasaForta,41.052953,0.436608
Torre de Foix,CasaForta,42.209507,1.858666
Torre de la Llebre,CasaForta,41.47609,2.034594
Torre de Seva,CasaForta,41.627310,2.296850
Torre de Taialà,CasaForta,41.996811,2.808488
Torre del Pla,CasaForta,41.62165,2.23936
Torre Ferrana,CasaForta,41.96455,2.761531
Torre Llupiana,CasaForta,41.891552,2.83002
Torre Negra,CasaForta,41.465164,2.100737
Torre Sampsona,CasaForta,41.952788,2.804503
Torres Altes de Foix,CasaForta,41.411015,1.543643
Torreta de Vallflor,CasaForta,41.342234,1.486323
Ajuntament de Vilafranca,Palau,41.346507,1.698001
Cal Gomà,Palau,41.347501,1.695827
Cal Macià,Palau,41.346402,1.697937
Can Nató,Palau,42.021179,3.010849
Casa Canals,Palau,41.118111,1.260056
Casa de la Vila,Palau,41.701667,1.052944
Casa Gran,Palau,41.82425,1.895472
Casa Ramon Balle,Palau,42.049885,2.953667
Casa Salieti,Palau,41.983554,2.825082
Casa-Palau dels Gibert,Palau,41.913958,1.679703
Casal dels Josa,Palau,41.377115,1.161753
Casal Palau dels Marquesos d’Aitona –Serós ,Palau,41.463045,0.409152
La Fontana d’or,Palau,41.98458,2.82562
La Paeria,Palau,41.614686,0.626802
Obra de Fluvià,Palau,41.788731,1.299402
Palau Abacial del Pont de Suert ,Palau,42.407204,0.739657
Palau Alenyà,Palau,41.377028,1.162833
Palau Baltà,Palau,41.3472,1.697061
Palau Comtal,Palau,42.258064,3.074073
Palau de l&#8217;Abadia,Palau,42.232441,2.285607
Palau de l&#8217;Abat,Palau,42.281555,2.97943
Palau de la Cambreria,Palau,41.118833,1.257583
Palau de Marianao,Palau,41.352611,2.022722
Palau del Castlà,Palau,41.375782,1.162547
Palau del marqués de Llió,Palau,41.453657,1.703682
Palau dels Cabrera,Palau,41.675945,2.792704
Palau dels Comtes de Centelles ,Palau,41.797523,2.219434
Palau dels Margarit,Palau,42.154942,3.06974
Palau dels Marquesos de la Floresta,Palau,41.64758,1.14019
Palau dels Oliver de Boteller,Palau,40.813333,0.521306
Palau Despuig,Palau,40.813306,0.522028
Palau Episcopal,Palau,41.986844,2.82605
Palau Episcopal,Palau,41.993994,1.519117
Palau Episcopal,Palau,40.813998,0.521413
Palau Llobera,Palau,41.995567,1.51927
Palau Novella,Palau,41.29177,1.85256
Palau Oriol,Palau,40.813194,0.521917
Palau Reial,Palau,42.043274,3.125921
Palau Reial,Palau,41.375961,1.161021
Palau Reial,Palau,41.346682,1.696839
Palau Solterra,Palau,42.041675,3.126168
Torre de Santa Llúcia ,Palau,41.482706,1.926975
Torre-ramona,Palau,41.421286,1.819867
El Pontarró,Pont,41.871339,2.115152
Passera de Sobrànigues,Pont,42.059724,2.959797
Passera entre Sant Gregori i Bescanó,Pont,41.969914,2.745667
Pont de Beget,Pont,42.3207,2.480731
Pont de Biosca,Pont,41.842049,1.35835
Pont de Buida-sacs,Pont,41.931724,1.64104
Pont de Cabrianes,Pont,41.772381,1.904694
Pont de Camarasa,Pont,41.87928,0.877018
Pont de Can Coca,Pont,41.747111,2.402194
Pont de Can Prat,Pont,42.13861,2.679167
Pont de Can Vernet,Pont,41.477716,2.076533
Pont de Can Vidal,Pont,41.94535,2.55699
Pont de Castellbò,Pont,42.373722,1.357528
Pont de Castelló de Farfanya,Pont,41.820684,0.729013
Pont de Cavaloca ,Pont,41.231583,0.74175
Pont de Conangle,Pont,41.834722,1.874389
Pont de Cossei,Pont,42.194489,2.544461
Pont de Gerri de la Sal,Pont,42.323645,1.065994
Pont de Gualta ,Pont,42.031433,3.103052
Pont de la cabreta,Pont,42.249538,2.164629
Pont de la Cabreta,Pont,41.953722,2.257278
Pont de la cantina,Pont,41.9125,2.3895
Pont de La Coromina ,Pont,41.9102,1.690167
Pont de la Creu,Pont,41.881589,3.12485
Pont de la Farga Vella,Pont,42.278667,2.00475
Pont de la Farga,Pont,42.0039,1.57183
Pont de la Font del Bisbe,Pont,41.988583,2.831333
Pont de la Gorga,Pont,42.036222,2.372389
Pont de La Lleura,Pont,41.924389,1.67454
Pont de la Noguerola,Pont,41.853472,2.355278
Pont de la Petita,Pont,42.244194,1.975472
Pont de la Riera,Pont,42.076611,2.304778
Pont de la Sala,Pont,42.027944,2.45875
Pont de les Femades ,Pont,41.386831,1.359411
Pont de les Masuques,Pont,41.288161,1.639053
Pont de Llierca,Pont,42.247444,2.60372
Pont de l’Aigua,Pont,42.014216,2.825375
Pont de l’Anijol,Pont,42.064861,2.279167
Pont de l’Espelt,Pont,42.23947,1.920243
Pont de l’Esquella,Pont,42.1175,1.304306
Pont de Manlleu,Pont,41.99695,2.286
Pont de Martís,Pont,42.172028,2.780667
Pont de Mas Riera,Pont,42.20618,2.754565
Pont de pedra de Santes Creus ,Pont,41.34978,1.36188
Pont de pedra,Pont,41.784698,1.097217
Pont de Pedret,Pont,42.106155,1.880674
Pont de Periques,Pont,41.977753,1.883592
Pont de Queralt,Pont,41.927731,2.256403
Pont de Riudevilla,Pont,41.88455,2.78246
Pont de Riugrèixer,Pont,42.271851,1.850737
Pont de Roma,Pont,42.121583,2.044944
Pont de Salarsa o Salarça,Pont,42.305056,2.478806
Pont de Sanaüja ,Pont,41.874405,1.309699
Pont de Sant Antoni,Pont,42.317222,2.782000
Pont de Sant Joan,Pont,41.920023,1.682956
Pont de Sant Martí d&#8217;Aravó,Pont,42.43272,1.917516
Pont de Sant Martí d’Albars,Pont,42.026891,2.076037
Pont de Sant Miquel,Pont,41.79392,0.807736
Pont de Santa Maria de Merlès,Pont,42.000333,1.981139
Pont de Santa Pau,Pont,42.14402,2.569902
Pont de Soler,Pont,42.397694,1.898972
Pont de Torruella,Pont,41.985833,2.246056
Pont de Vall-llonga,Pont,42.141266,1.584832
Pont de Vallcanera,Pont,41.82771,2.74439
Pont de Vallfogona,Pont,42.193598,2.303709
Pont de Vilella,Pont,42.250047,1.865815
Pont de Vilomara,Pont,41.700833,1.869167
Pont del Bullidor de la Llet,Pont,42.275024,1.817756
Pont del Diable,Pont,41.47501,1.938266
Pont del Diable,Pont,42.106751,1.844867
Pont del Diable,Pont,41.919671,1.684835
Pont del Diable,Pont,42.370278,1.81
Pont del Diable,Pont,41.807993,1.381412
Pont del Far,Pont,42.183099,1.866565
Pont del fossat,Pont,41.979101,3.089626
Pont del Llop,Pont,42.073133,1.570877
Pont del Molí de Canet,Pont,41.945278,1.613028
Pont del Molí de les Pipes,Pont,41.819889,2.493222
Pont del Molí de Querol,Pont,42.026694,1.399472
Pont del molí de Saleta,Pont,41.903776,2.500416
Pont del Molí del Puig,Pont,42.268683,1.812551
Pont del molí dels capellans,Pont,41.879806,2.279750
Pont del molí d’en Solà,Pont,42.216495,2.403429
Pont del Prat de les Hortes,Pont,41.940339,2.567885
Pont del Remei,Pont,41.924566,2.249799
Pont dels moros ,Pont,41.253392,1.174524
Pont d’en Bruguer ,Pont,41.939167,2.276556
Pont d’Orniu,Pont,42.067835,1.868368
Pont i aqüeducte de Can Claverí,Pont,41.498055,2.028713
Pont i portals medievals de Besalú ,Pont,42.199348,2.701508
Pont medieval de Sant Andreu,Pont,42.066524,2.846141
Pont medieval de Sant Joan les Fonts ,Pont,42.212357,2.509421
Pont medieval de Sords,Pont,42.088045,2.823787
Pont Nou,Pont,42.31284,2.36423
Pont Nou,Pont,41.727778,1.813806
Pont Petit de Beget,Pont,42.320199,2.481342
Pont romà de la Roqueta,Pont,42.023704,3.078371
Pont Romà,Pont,41.635806,2.160278
Pont Romà,Pont,42.271472,2.533611
Pont romànic de la Vall d’Ora,Pont,42.085583,1.673889
Pont sobre el riu Fluvià,Pont,42.221667,2.549722
Pont sobre el riu Llobregat,Pont,41.610833,1.846944
Pont trencat,Pont,41.26262,1.21893
Pont Vell ,Pont,41.224022,1.032956
Pont Vell,Pont,41.640681,1.856603
Pont Vell,Pont,42.243843,1.975232
Pont Vell,Pont,41.720834,1.830039
Pont Vell,Pont,41.823856,1.893056
Pont Vell de Guardiola,Pont,42.215105,1.869432
Pont Vell de Sant Joan de les Abadesses ,Pont,42.235237,2.284175
Pont Vell del Molí d’en Güell,Pont,42.190884,1.693735
Pont Vell d’Avinyó,Pont,41.862222,1.975556
Pont Vell d’Orniu,Pont,42.067302,1.868825
Pont Vell o Pont Romà,Pont,41.243861,0.700389
Pont Vell,Pont,41.829623,0.577861
Pont Vell,Pont,42.251722,1.861194
Pont Vell,Pont,41.29827,1.03858
Pont Vell,Pont,42.03325,1.881556
Pont Vell,Pont,41.380364,1.161313
Pont Vell,Pont,41.94609,2.55546
Pont Vell,Pont,42.332056,3.204694
Pont Vell,Pont,41.980147,2.308126
Pont Vell,Pont,41.971028,2.628922
Pont Vell,Pont,42.322306,2.789639
Pont Vell,Pont,41.376287,0.98111
Torre colomer,TorreColomer,42.404263,1.545151
Torre colomer,TorreColomer,42.374317,1.526354
Torre colomer d&#8217;en Jovany,TorreColomer,42.511345,1.4376
Torre colomer de Castellbò,TorreColomer,42.374828,1.358506
Torre colomer de l’Arboçar,TorreColomer,41.327561,1.758989
Torre de les Bruixes,TorreColomer,42.54882,1.314417
Torre del Mas Pigot,TorreColomer,41.289906,1.653978
Torrota de Can Pinya,TorreColomer,41.420004,1.827019
Torrota d’en Pasteres,TorreColomer,41.417928,1.817372
Can Clarà,Castells,42.185208,3.080167
Can Jalpí,Castells,41.599164,2.540166
Casal dels Montoliu,Castells,41.192184,1.208606
Castell Coll,Castells,42.196133,2.462217
Castell d&#8217;Abella,Castells,42.162376,1.093175
Castell d&#8217;Aguilar,Castells,42.016389,1.275278
Castell d&#8217;Aguilar de Segarra ,Castells,41.750202,1.627218
Castell d&#8217;Aguiló,Castells,41.553009,1.41898
Castell d&#8217;Albió,Castells,41.565186,1.270519
Castell d&#8217;Albons ,Castells,42.104549,3.085609
Castell d&#8217;Alforja ,Castells,41.210632,0.974176
Castell d&#8217;Algars,Castells,41.092022,0.227797
Castell d&#8217;Alió ,Castells,41.293611,1.304722
Castell d&#8217;Alsamora,Castells,42.08157,0.727952
Castell d&#8217;Altès,Castells,42.018982,1.31896
Castell d&#8217;Amposta ,Castells,40.714306,0.579824
Castell d&#8217;Aramunt,Castells,42.200424,0.996741
Castell d&#8217;Arbeca ,Castells,41.542336,0.923015
Castell d&#8217;Arbul,Castells,42.127193,0.78563
Castell d&#8217;Arcalís,Castells,42.349113,1.091613
Castell d&#8217;Ardesa,Castells,41.634651,1.580958
Castell d&#8217;Ardèvol,Castells,41.851745,1.518908
Castell d&#8217;Arenys d&#8217;Empordà,Castells,42.165833,2.953333
Castell d&#8217;Argençola ,Castells,41.598,1.442886
Castell d&#8217;Aristot,Castells,42.379555,1.623324
Castell d&#8217;Ars,Castells,42.44677,1.396878
Castell d&#8217;Artés ,Castells,41.799576,1.950494
Castell d&#8217;Arties ,Castells,42.698227,0.870522
Castell d&#8217;Ascó ,Castells,41.179741,0.566147
Castell d&#8217;Avinyó,Castells,41.373056,1.773889
Castell d&#8217;Avinyonet ,Castells,42.249531,2.914301
Castell d&#8217;Empordà,Castells,41.978138,3.044178
Castell d&#8217;en Roca,Castells,42.162689,2.680731
Castell d&#8217;Enfesta,Castells,41.777924,1.476304
Castell d&#8217;Era Castèra,Castells,42.790554,0.691693
Castell d&#8217;Eramprunyà,Castells,41.314117,1.957401
Castell d&#8217;Eroles,Castells,42.172035,0.818452
Castell d&#8217;Escales,Castells,42.248634,2.865782
Castell d&#8217;Esclanyà,Castells,41.92923,3.176558
Castell d&#8217;Esparreguera ,Castells,41.549747,1.870653
Castell d&#8217;Espases,Castells,41.57951,1.884273
Castell d&#8217;Espitlles,Castells,41.316067,1.677577
Castell d&#8217;Espolla ,Castells,42.390186,3.001547
Castell d&#8217;Esponellà ,Castells,42.179157,2.790745
Castell d&#8217;Hortal,Castells,42.302307,2.897574
Castell d&#8217;Hostoles,Castells,42.070187,2.53086
Castell d&#8217;Isanta,Castells,42.096237,1.516821
Castell d&#8217;Odèn ,Castells,42.133423,1.455187
Castell d&#8217;Òdena ,Castells,41.605991,1.639321
Castell d&#8217;Oix ,Castells,42.273582,2.531724
Castell d&#8217;Olèrdola ,Castells,41.303974,1.709718
Castell d&#8217;Oliana ,Castells,42.085419,1.299334
Castell d&#8217;Olivella ,Castells,41.320419,1.813938
Castell d&#8217;Oló,Castells,41.870819,2.034646
Castell d&#8217;Olp,Castells,42.430069,1.1146
Castell d&#8217;Orcau,Castells,42.165916,0.982692
Castell d&#8217;Orpí ,Castells,41.518795,1.575398
Castell d&#8217;Orriols ,Castells,42.125008,2.906983
Castell d&#8217;Orrit,Castells,42.257088,0.742921
Castell d&#8217;Ulldecona ,Castells,40.594955,0.430889
Castell d&#8217;Unha,Castells,42.711132,0.903746
Castell de Bagà ,Castells,42.253452,1.861102
Castell de Balsareny ,Castells,41.87077,1.881441
Castell de Banyeres ,Castells,41.281311,1.578571
Castell de Bar,Castells,42.358334,1.639656
Castell de Barbavella,Castells,42.018894,2.872185
Castell de Barbens ,Castells,41.679085,1.018663
Castell de Barberà,Castells,41.411449,1.227288
Castell de Batea ,Castells,41.095848,0.308781
Castell de Begur ,Castells,41.956371,3.208609
Castell de Bell-lloc,Castells,41.625942,2.335301
Castell de Bellpuig,Castells,41.626399,1.010941
Castell de Bellveí,Castells,41.75526,1.291789
Castell de Bellver,Castells,42.370674,1.775604
Castell de Berguedà,Castells,42.109974,1.834526
Castell de Berti,Castells,41.715134,2.228516
Castell de Besora,Castells,42.02927,1.599364
Castell de Besora,Castells,42.123772,2.250183
Castell de Bestracà,Castells,42.29435,2.51543
Castell de Beuda ,Castells,42.238018,2.70445
Castell de Biosca ,Castells,41.843056,1.359534
Castell de Biure,Castells,41.490318,1.351514
Castell de Biure d&#8217;Empordà ,Castells,42.339081,2.893334
Castell de Biure de Queixàs,Castells,42.211639,2.815306
Castell de Blancafort,Castells,42.129284,1.83753
Castell de Blancafort,Castells,42.253052,2.085149
Castell de Blanes ,Castells,41.679485,2.798287
Castell de Boixadors,Castells,41.770573,1.574754
Castell de Briançó,Castells,41.636619,1.344846
Castell de Brunyola ,Castells,41.904652,2.68461
Castell de Bufalaranya,Castells,42.295364,3.194436
Castell de Burg,Castells,42.504154,1.272346
Castell de Burriac,Castells,41.537491,2.387178
Castell de Cabanes ,Castells,42.307026,2.97718
Castell de Cabrera,Castells,41.513363,1.693413
Castell de Cabrera,Castells,42.407284,2.773715
Castell de Cabrera,Castells,42.076038,2.407253
Castell de Calabuig,Castells,42.152004,2.924992
Castell de Calaf ,Castells,41.733765,1.509652
Castell de Calafell ,Castells,41.201523,1.568443
Castell de Calders,Castells,41.780602,1.992983
Castell de Caldes,Castells,41.838406,2.808407
Castell de Callús ,Castells,41.794182,1.779386
Castell de Calonge,Castells,41.764278,1.480789
Castell de Calonge ,Castells,41.863056,3.073333
Castell de Camarasa ,Castells,41.87624,0.877946
Castell de Cambrer,Castells,41.15477,1.109528
Castell de Cambrils,Castells,42.132236,1.38788
Castell de Campdorà ,Castells,42.012775,2.843864
Castell de Campelles ,Castells,42.295132,2.13905
Castell de Camprodon ,Castells,42.312862,2.365698
Castell de Can Ferrer de la Cogullada,Castells,41.325851,1.429499
Castell de Can Feu,Castells,41.539329,2.093716
Castell de Can Jaumar,Castells,41.526875,2.370478
Castell de Can Taió,Castells,41.523834,2.176556
Castell de Canadal,Castells,42.410645,2.882801
Castell de Canals,Castells,41.459045,2.039884
Castell de Canet d&#8217;Adri,Castells,42.036694,2.730843
Castell de Cantallops ,Castells,42.422558,2.925011
Castell de Canyelles ,Castells,41.287209,1.722777
Castell de Cap Roig,Castells,41.877174,3.177366
Castell de Cardona ,Castells,41.914391,1.685629
Castell de Carles,Castells,40.850552,0.359534
Castell de Cartellà,Castells,42.011852,2.763298
Castell de Casserres,Castells,41.995247,2.342513
Castell de Castell d&#8217;Aro,Castells,41.815048,3.030566
Castell de Castell-llebre,Castells,42.085075,1.289649
Castell de Castell-lleó,Castells,42.738876,0.717038
Castell de Castelladral,Castells,41.900249,1.781212
Castell de Castellar,Castells,41.728264,1.649288
Castell de Castellar,Castells,42.022568,1.416273
Castell de Castellar,Castells,41.60575,2.074528
Castell de Castellarnau,Castells,41.559341,2.072843
Castell de Castellbarri,Castells,41.855221,3.046769
Castell de Castellbell,Castells,41.642452,1.858315
Castell de Castellbisbal ,Castells,41.473953,1.973725
Castell de Castellbó,Castells,42.374596,1.356001
Castell de Castellcir,Castells,41.774067,2.176774
Castell de Castellciuró,Castells,41.412277,2.030757
Castell de Castellciutat,Castells,42.357609,1.445467
Castell de Castelldans ,Castells,41.501163,0.765677
Castell de Castelldefels ,Castells,41.284248,1.978148
Castell de Castellet,Castells,41.264599,1.636075
Castell de Castellet,Castells,41.501865,1.731253
Castell de Castellet,Castells,41.664215,1.850716
Castell de Castellfollit,Castells,41.776344,1.436918
Castell de Castellfollit,Castells,41.669014,1.704632
Castell de Castellfollit,Castells,42.218867,2.552812
Castell de Castellgalí ,Castells,41.678619,1.840801
Castell de Castellgermà,Castells,42.375271,0.862853
Castell de Castellmeià,Castells,41.735027,1.301424
Castell de Castellnou de Carcolze,Castells,42.387638,1.582192
Castell de Castellnou de Llinars ,Castells,41.640312,2.403332
Castell de Castellnou de Montsec,Castells,42.102112,0.765325
Castell de Castellnou,Castells,41.703693,1.297454
Castell de Castelló,Castells,41.821354,0.725795
Castell de Castellolí ,Castells,41.588585,1.708422
Castell de Castelltallat,Castells,42.118652,0.995784
Castell de Castelltallat ,Castells,41.793964,1.632594
Castell de Castellterçol,Castells,41.745049,2.120101
Castell de Castellvell de la Marca ,Castells,41.337608,1.578528
Castell de Castellvell de Solsona,Castells,41.994888,1.502962
Castell de Castellvell del Far,Castells,41.626678,2.407449
Castell de Castilló de Tor,Castells,42.434029,0.741768
Castell de Castissent,Castells,42.124413,0.713653
Castell de Cava ,Castells,42.325245,1.606662
Castell de Cellers,Castells,41.811954,1.476221
Castell de Celrà ,Castells,42.019855,2.881905
Castell de Centelles,Castells,41.769615,2.206535
Castell de Cervelló ,Castells,41.387589,1.959415
Castell de Cervera ,Castells,41.664597,1.26906
Castell de Cérvoles ,Castells,41.359577,0.916994
Castell de Ceuró,Castells,42.019417,1.373556
Castell de Cinc Claus,Castells,42.137245,3.100883
Castell de Ciutadilla ,Castells,41.56089,1.140824
Castell de Clarà,Castells,41.820282,2.080168
Castell de Clarà,Castells,41.149982,1.41748
Castell de Claramunt,Castells,41.55484,1.66942
Castell de Claravalls,Castells,41.702827,1.126158
Castell de Claret,Castells,42.154263,0.867888
Castell de Claret de Cavallers,Castells,41.821667,1.64667
Castell de Claret,Castells,41.820831,1.464073
Castell de Clariana,Castells,41.586498,1.500455
Castell de Clariana,Castells,41.935886,1.620559
Castell de Claverol,Castells,42.245064,0.986956
Castell de Clua,Castells,41.946999,1.016823
Castell de Coaner,Castells,41.832756,1.713213
Castell de Collbató ,Castells,41.569424,1.830125
Castell de Colltort,Castells,42.13229,2.532727
Castell de Colomers,Castells,42.084108,2.987518
Castell de Comiols,Castells,42.025372,1.101001
Castell de Concabella,Castells,41.751526,1.234991
Castell de Conesa ,Castells,41.518925,1.291419
Castell de Conill,Castells,41.725761,1.460444
Castell de Conques,Castells,42.119568,1.010951
Castell de Corbera ,Castells,41.417992,1.922831
Castell de Corbera d’Ebre ,Castells,41.078333,0.476111
Castell de Corbins,Castells,41.692578,0.694783
Castell de Corçà ,Castells,41.989883,3.017874
Castell de Corçà,Castells,42.030342,0.686063
Castell de Cornellà,Castells,41.35384,2.071699
Castell de Cornellà,Castells,42.089893,2.817653
Castell de Cornet,Castells,41.862476,1.91242
Castell de Creixell,Castells,42.222816,2.926322
Castell de Creixell ,Castells,41.168213,1.4411
Castell de Cruïlles,Castells,41.780396,2.255802
Castell de Cubelles ,Castells,41.207798,1.672475
Castell de Cubells,Castells,41.851204,0.958664
Castell de Cunit ,Castells,41.197323,1.633039
Castell de Dosquers,Castells,42.196701,2.750916
Castell de Dosrius ,Castells,41.600292,2.404355
Castell de Dusfort,Castells,41.740508,1.493289
Castell de Falgars,Castells,42.255802,2.730502
Castell de Falgons,Castells,42.107716,2.663251
Castell de Falset ,Castells,41.145355,0.816464
Castell de Farners,Castells,41.860382,2.631212
Castell de Ferran,Castells,41.537548,1.189206
Castell de Ferran,Castells,41.145836,1.359054
Castell de Figuerola de Meià,Castells,41.974682,0.890759
Castell de Finestres,Castells,42.111885,2.593004
Castell de Finestres,Castells,42.038369,3.034686
Castell de Florejacs ,Castells,41.800396,1.214062
Castell de Fluvià,Castells,41.722111,2.414608
Castell de Foix,Castells,41.414867,1.563639
Castell de Foixà ,Castells,42.036098,3.000756
Castell de Fonolleres,Castells,42.021267,3.052397
Castell de Fonolleres,Castells,41.657997,1.202614
Castell de Font-Rubí ,Castells,41.439556,1.58724
Castell de Fontanilles ,Castells,42.009739,3.107393
Castell de Fontllonga,Castells,41.971542,0.858886
Castell de Forès ,Castells,41.494377,1.238242
Castell de Fornells,Castells,41.926228,2.802662
Castell de Fornils,Castells,42.020203,2.514968
Castell de Freixenet,Castells,42.097946,2.116555
Castell de Fulleda ,Castells,41.464119,1.023523
Castell de Gaià ,Castells,41.918877,1.919571
Castell de Gallifa ,Castells,41.688072,2.111306
Castell de Gandesa,Castells,41.053351,0.436411
Castell de Gardeny,Castells,41.608742,0.614516
Castell de Garraf,Castells,41.259117,1.901093
Castell de Gavarra,Castells,42.104382,1.196281
Castell de Gebut,Castells,41.513727,0.4724
Castell de Gelida ,Castells,41.43576,1.87039
Castell de Geltrú,Castells,41.226902,1.727828
Castell de Gerb,Castells,41.825363,0.803686
Castell de Gessa,Castells,42.705704,0.890437
Castell de Gilareny,Castells,42.489857,1.213552
Castell de Gimenells,Castells,41.676842,0.394886
Castell de Gironella ,Castells,42.033588,1.882318
Castell de Gironella o Torre Gironella,Castells,41.986759,2.829438
Castell de Gósol ,Castells,42.234032,1.660569
Castell de Gospí,Castells,41.738354,1.34968
Castell de Granera,Castells,41.729897,2.057718
Castell de Granollers,Castells,42.068352,2.651833
Castell de Granyena,Castells,41.624043,1.244969
Castell de Grevalosa,Castells,41.693117,1.65395
Castell de Grialó,Castells,41.900433,1.105939
Castell de Guàrdia,Castells,42.101166,0.876605
Castell de Guardiola,Castells,42.215473,1.868641
Castell de Guialmons,Castells,41.512295,1.365883
Castell de Guimerà ,Castells,41.565189,1.185971
Castell de Gurb ,Castells,41.95211,2.210392
Castell de Jafre ,Castells,42.072811,3.011004
Castell de Jorba ,Castells,41.602558,1.546452
Castell de Josa,Castells,42.257271,1.618904
Castell de Jou,Castells,42.598133,1.113801
Castell de Juià ,Castells,42.014053,2.911106
Castell de Juvinyà,Castells,42.211224,2.507444
Castell de L&#8217;Abadia ,Castells,42.266087,3.018016
Castell de l&#8217;Albà,Castells,41.349754,1.42778
Castell de l&#8217;Albagés ,Castells,41.449394,0.737932
Castell de L&#8217;Alberg,Castells,41.989594,3.015254
Castell de l&#8217;Albi ,Castells,41.423801,0.935579
Castell de L&#8217;Albiol ,Castells,41.252998,1.088762
Castell de l&#8217;Arquebisbe,Castells,41.285866,1.250572
Castell de L&#8217;Espluga,Castells,41.397507,1.105204
Castell de l&#8217;Espluga Calba ,Castells,41.494961,1.004715
Castell de L&#8217;Espunyola ,Castells,42.046825,1.782899
Castell de l&#8217;Hostal Roig,Castells,42.038544,0.999665
Castell de L&#8217;Infant,Castells,40.991714,0.92224
Castell de La Bisbal,Castells,41.959396,3.03736
Castell de La Bisbal del Penedès ,Castells,41.281418,1.487108
Castell de la Bleda,Castells,41.344105,1.660869
Castell de la Cardosa,Castells,41.699997,1.252659
Castell de La Cirera,Castells,41.552898,1.330145
Castell de la Cirera,Castells,41.924697,2.020171
Castell de La Clua,Castells,41.991219,1.277756
Castell de La Curullada,Castells,41.66568,1.227038
Castell de la Figuera ,Castells,41.216755,0.731481
Castell de la Figuera,Castells,41.842149,0.664425
Castell de La Floresta ,Castells,41.511501,0.918874
Castell de La Garriga,Castells,42.279671,3.153666
Castell de La Glorieta,Castells,42.504936,1.257023
Castell de la Granada ,Castells,41.378735,1.71913
Castell de la Granadella,Castells,41.357565,0.662804
Castell de la Guàrdia de Montserrat,Castells,41.608845,1.773753
Castell de la Guàrdia Lada,Castells,41.589859,1.292768
Castell de La Guàrdia Pilosa,Castells,41.707268,1.470274
Castell de La Guàrdia,Castells,42.139133,2.123151
Castell de La Guardiola,Castells,42.254349,3.244617
Castell de la Llosa,Castells,42.442471,1.701961
Castell de la Manresana,Castells,41.724323,1.356777
Castell de La Miana,Castells,42.178745,2.631035
Castell de la Molsosa ,Castells,41.786427,1.558591
Castell de la Móra,Castells,41.650402,1.193918
Castell de la Morana,Castells,41.78215,1.263422
Castell de La Morera ,Castells,41.264545,0.840851
Castell de La Palma d&#8217;Ebre ,Castells,41.282936,0.665692
Castell de la Pedra,Castells,42.16526,1.604404
Castell de La Pertusa,Castells,42.044182,0.672542
Castell de La Ràpita,Castells,41.787601,0.833614
Castell de La Roca,Castells,41.668961,2.048622
Castell de la Roca ,Castells,42.322601,2.33133
Castell de La Roca del Vallès ,Castells,41.591583,2.328267
Castell de La Roqueta,Castells,41.528644,1.484801
Castell de la Saida,Castells,41.718625,0.507806
Castell de la Sinoga,Castells,41.572907,1.022368
Castell de La Suda,Castells,40.815048,0.523543
Castell de la Suda,Castells,41.61849,0.625915
Castell de la Tallada,Castells,41.640804,1.416412
Castell de La Torre de Claramunt ,Castells,41.533779,1.6583
Castell de La Torre Lloreta,Castells,41.869431,3.079774
Castell de La Trinitat,Castells,42.247349,3.183841
Castell de La Vall,Castells,42.298157,2.919796
Castell de La Vall d’Ariet,Castells,41.955639,0.997589
Castell de Lavit,Castells,41.446682,1.729912
Castell de Les ,Castells,42.812271,0.717292
Castell de les Besses,Castells,41.4305,0.828693
Castell de Les Escaules,Castells,42.318886,2.880711
Castell de Les Piles ,Castells,41.504238,1.342964
Castell de Les Pujades,Castells,41.332443,1.625928
Castell de Les Sitges,Castells,41.816231,1.227897
Castell de Les Ventoses,Castells,41.79628,1.012861
Castell de Lillet,Castells,42.238182,1.988276
Castell de Linyola ,Castells,41.710255,0.90424
Castell de Lladorre ,Castells,42.620029,1.247334
Castell de Lladurs ,Castells,42.051395,1.518498
Castell de Llaés,Castells,42.154545,2.247874
Castell de Llanera,Castells,41.867691,1.480998
Castell de Llers ,Castells,42.29578,2.911702
Castell de Llimiana,Castells,42.076443,0.916125
Castell de Llívia ,Castells,42.467655,1.986133
Castell de Llobera ,Castells,41.951366,1.470022
Castell de Lloberola,Castells,41.889076,1.362608
Castell de Llorac ,Castells,41.555904,1.307282
Castell de Llordà,Castells,42.116352,1.09079
Castell de Llorenç ,Castells,41.284672,1.552103
Castell de Llorenç,Castells,41.870998,0.829031
Castell de Llort,Castells,42.572376,1.136036
Castell de Lluçà ,Castells,42.054588,2.040281
Castell de l’Aguda,Castells,41.818729,1.401344
Castell de l’Aguda,Castells,41.937672,1.268371
Castell de l’Ametlla de Segarra,Castells,41.575932,1.23991
Castell de l’Aranyó,Castells,41.705556,1.218056
Castell de l’Oluja Alta,Castells,41.697521,1.321355
Castell de Maçanet de Cabrenys ,Castells,42.386086,2.747542
Castell de Madrona,Castells,41.968502,1.335153
Castell de Maians,Castells,41.637516,1.702884
Castell de Malacara,Castells,41.718227,1.388958
Castell de Malagastre,Castells,41.89439,1.016198
Castell de Malavella,Castells,41.816746,2.799979
Castell de Maldà,Castells,41.55133,1.037706
Castell de Malgrat,Castells,41.709736,1.301263
Castell de Malla ,Castells,41.887486,2.233288
Castell de Malmercat,Castells,42.370148,1.122285
Castell de Manresa ,Castells,41.728056,1.826389
Castell de Marcovau,Castells,41.867928,1.033147
Castell de Marmellar,Castells,41.358631,1.551092
Castell de Marzà,Castells,42.311405,3.066748
Castell de Mas Saleta o de Montsolís,Castells,41.890015,2.509507
Castell de Masricard,Castells,41.119514,1.183187
Castell de Mataplana,Castells,42.262287,2.060886
Castell de Medinyà,Castells,42.049545,2.865138
Castell de Mediona ,Castells,41.476227,1.641531
Castell de Meià,Castells,42.002773,1.020744
Castell de Merlès,Castells,41.998714,1.984293
Castell de Merola ,Castells,41.93129,1.871404
Castell de Milany,Castells,42.165554,2.289652
Castell de Millà,Castells,41.957832,0.697806
Castell de Millars,Castells,41.98856,2.970694
Castell de Milmanda,Castells,41.397434,1.074469
Castell de Miralles,Castells,41.518669,1.518474
Castell de Mirambell,Castells,41.731007,1.48935
Castell de Miravet ,Castells,41.035583,0.593755
Castell de Molinàs,Castells,42.402622,3.104965
Castell de Molins,Castells,42.313805,2.920049
Castell de Monells,Castells,41.974709,2.99904
Castell de Mont-roig,Castells,42.352123,2.875561
Castell de Mont-Ros,Castells,42.206783,2.550333
Castell de Mont-ros,Castells,41.737289,1.366139
Castell de Montagut,Castells,41.765995,2.939048
Castell de Montagut,Castells,42.230991,2.572276
Castell de Montagut,Castells,41.406895,1.422271
Castell de Montagut,Castells,42.031456,2.815563
Castell de Montanissell,Castells,42.194771,1.256325
Castell de Montargull,Castells,41.554852,1.376646
Castell de Montbui,Castells,41.664078,2.177294
Castell de Montbui,Castells,41.555202,1.579864
Castell de Montclar,Castells,41.467731,1.346539
Castell de Montclar ,Castells,41.847713,1.041971
Castell de Montclús,Castells,41.722553,2.432334
Castell de Montcortés,Castells,41.706661,1.229954
Castell de Montcortés de Pallars,Castells,42.329117,1.004911
Castell de Montesquiu,Castells,41.694092,1.424889
Castell de Montesquiu ,Castells,42.113316,2.21194
Castell de Montfalcó,Castells,41.657509,1.454122
Castell de Montfalcó del Duc,Castells,41.688755,1.339659
Castell de Montfalcó d’Agramunt,Castells,41.759446,1.131225
Castell de Montgai,Castells,41.800835,0.961591
Castell de Montgrí,Castells,42.05212,3.131629
Castell de Montgrony,Castells,42.266396,2.085788
Castell de Montjuic,Castells,41.3634,2.166112
Castell de Montjuïc,Castells,41.993149,2.831706
Castell de Montllobar,Castells,42.152977,0.800605
Castell de Montmagastre,Castells,41.976418,1.128534
Castell de Montmajor,Castells,42.006622,1.734448
Castell de Montmany,Castells,41.721531,2.250239
Castell de Montmarí,Castells,42.31728,2.905991
Castell de Montoliu,Castells,41.15469,1.36286
Castell de Montoliu,Castells,41.590244,1.269444
Castell de Montornès,Castells,41.170719,1.403882
Castell de Montornès,Castells,41.601379,1.229415
Castell de Montornès,Castells,41.527554,2.272123
Castell de Montpalau,Castells,42.205944,2.608139
Castell de Montpalau,Castells,41.642086,2.67026
Castell de Montpaó,Castells,41.650058,1.305584
Castell de Montsonís,Castells,41.887138,1.022339
Castell de Montsoriu,Castells,41.783024,2.540398
Castell de Mora,Castells,41.094215,0.640815
Castell de Moripol,Castells,42.193641,1.674785
Castell de Moror,Castells,42.078979,0.834559
Castell de Mujal,Castells,41.892231,1.844083
Castell de Muntanyola,Castells,41.87856,2.16913
Castell de Múnter,Castells,41.877926,2.216189
Castell de Mur ,Castells,42.105091,0.856472
Castell de Mura ,Castells,41.697701,1.994413
Castell de Murcurols,Castells,42.266491,1.785874
Castell de Navata ,Castells,42.210461,2.857813
Castell de Navès ,Castells,41.990826,1.639892
Castell de Paborde,Castells,41.120289,1.25699
Castell de Palafolls ,Castells,41.678734,2.735322
Castell de Palagret,Castells,42.011421,2.891711
Castell de Palau-Surroca,Castells,42.297848,2.871793
Castell de Pallargues,Castells,41.762386,1.197386
Castell de Pallejà ,Castells,41.421722,1.996749
Castell de Palmerola,Castells,42.156189,2.034185
Castell de Palol,Castells,42.069656,2.796093
Castell de Palol,Castells,41.956367,2.850595
Castell de Palol Sabaldòria,Castells,42.243416,2.946377
Castell de Pardines,Castells,42.31237,2.21392
Castell de Passanant,Castells,41.532104,1.195804
Castell de Paüls ,Castells,40.922955,0.399193
Castell de Peguera,Castells,42.160683,1.771967
Castell de Penalonga,Castells,41.180168,1.257876
Castell de Penyafel,Castells,41.316883,1.683421
Castell de Pera,Castells,41.690475,2.028745
Castell de Peracamps,Castells,41.916748,1.435856
Castell de Perafita ,Castells,42.048027,2.109989
Castell de Peralada ,Castells,42.307587,3.0109
Castell de Peralba,Castells,41.993507,0.919507
Castell de Peralta,Castells,41.954796,3.091198
Castell de Peramea,Castells,42.330078,1.047859
Castell de Peramola ,Castells,42.057198,1.267475
Castell de Piera ,Castells,41.515926,1.74158
Castell de Pinyana,Castells,41.406944,1.393402
Castell de Plegamans ,Castells,41.583504,2.182456
Castell de Pontils ,Castells,41.479404,1.385779
Castell de Pontós ,Castells,42.182278,2.91805
Castell de Ponts ,Castells,41.917339,1.194707
Castell de Porqueres ,Castells,42.12215,2.748009
Castell de Porrera ,Castells,41.189659,0.856118
Castell de Pradell,Castells,41.797413,1.028906
Castell de Prades ,Castells,41.309929,0.986154
Castell de Pratdip ,Castells,41.050163,0.871806
Castell de Preixens ,Castells,41.794437,1.050884
Castell de Prenafeta,Castells,41.376385,1.232663
Castell de Prullans ,Castells,42.379276,1.7365
Castell de Púbol,Castells,42.01458,2.983274
Castell de Puig-reig ,Castells,41.971241,1.88235
Castell de Puigbó,Castells,42.228909,2.073667
Castell de Puigcercós,Castells,42.130375,0.883458
Castell de Puigdelfí,Castells,41.195152,1.236268
Castell de Puigdemàger,Castells,41.727905,1.550454
Castell de Pujalt ,Castells,41.717484,1.420581
Castell de Pujarnol,Castells,42.10202,2.707905
Castell de Quer,Castells,42.001244,2.024545
Castell de Queralbs ,Castells,42.349213,2.164457
Castell de Queralt,Castells,41.513664,1.45833
Castell de Quermançó,Castells,42.34,3.091997
Castell de Querol ,Castells,41.423481,1.397941
Castell de Querol,Castells,41.991447,1.752054
Castell de Raïmat,Castells,41.676247,0.478561
Castell de Rajadell ,Castells,41.728531,1.705901
Castell de Ramonet,Castells,41.399254,1.411885
Castell de Ratera,Castells,41.750645,1.224273
Castell de Rauric,Castells,41.542793,1.359633
Castell de Ravós ,Castells,42.07092,2.838252
Castell de Requesens,Castells,42.446693,2.944564
Castell de Rialp ,Castells,42.444771,1.133987
Castell de Ribatallada,Castells,41.587082,2.06573
Castell de Ribelles,Castells,41.883633,1.277477
Castell de Ribes,Castells,42.309826,2.171672
Castell de Ribes,Castells,41.259224,1.764137
Castell de Riner ,Castells,41.941284,1.563771
Castell de Riudabella,Castells,41.372498,1.043063
Castell de Rivert,Castells,42.250092,0.89541
Castell de Rocabertí,Castells,42.436821,2.884094
Castell de Rocabruna,Castells,42.329556,2.453272
Castell de Rocacorba ,Castells,42.067272,2.68774
Castell de Rocafort,Castells,41.46521,1.923652
Castell de Rocafort,Castells,41.716194,1.925692
Castell de Rocafort,Castells,41.479034,1.281517
Castell de Rocafort de Vallbona,Castells,41.554747,1.093488
Castell de Rocamora,Castells,41.262592,1.366669
Castell de Rodonyà ,Castells,41.279722,1.398806
Castell de Rosanes,Castells,41.466637,1.930482
Castell de Roset,Castells,42.148346,1.914322
Castell de Rubí ,Castells,41.494465,2.026393
Castell de Rúbies,Castells,42.020833,0.9125
Castell de Rubinat,Castells,41.624463,1.319003
Castell de Rubió ,Castells,41.645023,1.570458
Castell de Rubió de Sols,Castells,41.906364,0.997138
Castell de Rubiol –Guissona ,Castells,41.800056,1.297449
Castell de Rupià,Castells,42.020403,3.010775
Castell de Rupit ,Castells,42.024536,2.466415
Castell de Sa Reganyada,Castells,42.101891,2.294622
Castell de Saburella,Castells,41.424683,1.363136
Castell de Sacama,Castells,41.566929,1.911731
Castell de Sala,Castells,41.518951,1.217559
Castell de Saladern,Castells,41.540478,1.24595
Castell de Salardú ,Castells,42.707569,0.902191
Castell de Salàs,Castells,42.211994,0.932381
Castell de Saldes ,Castells,42.233429,1.739118
Castell de Sales,Castells,42.243542,2.644594
Castell de Sallent ,Castells,41.818073,1.902882
Castell de Salsa,Castells,42.035072,1.343355
Castell de Samalús,Castells,41.691194,2.314028
Castell de Sanaüja ,Castells,41.877949,1.310203
Castell de Sant Blai,Castells,41.03273,0.721815
Castell de Sant Boi ,Castells,41.344913,2.044149
Castell de Sant Cebrià dels Alls,Castells,41.887347,3.014413
Castell de Sant Climenç,Castells,41.951077,1.417995
Castell de Sant Esteve de Mar,Castells,41.858227,3.147634
Castell de Sant Feliu de la Garriga,Castells,42.119289,3.053352
Castell de Sant Ferran,Castells,42.106457,1.846229
Castell de Sant Ferran,Castells,42.273117,2.947512
Castell de Sant Gervàs,Castells,42.071896,0.969128
Castell de Sant Gregori,Castells,41.989025,2.740547
Castell de Sant Guim de la Plana ,Castells,41.762779,1.323989
Castell de Sant Guim de la Rabassa,Castells,41.64852,1.4058
Castell de Sant Iscle,Castells,42.031413,3.056299
Castell de Sant Iscle,Castells,41.784939,2.807651
Castell de Sant Jaume,Castells,42.290298,3.280725
Castell de Sant Jaume,Castells,41.451118,1.919276
Castell de Sant Joan,Castells,41.693878,2.839405
Castell de Sant Jordi,Castells,42.071793,2.953675
Castell de Sant Jordi d&#8217;Alfama,Castells,40.911369,0.832067
Castell de Sant Llorenç de la Muga ,Castells,42.320122,2.785824
Castell de Sant Llorenç,Castells,42.04327,0.694191
Castell de Sant Llorenç,Castells,41.923492,2.358791
Castell de Sant Martí d&#8217;Empúries,Castells,42.139675,3.118213
Castell de Sant Martí de Riucorb,Castells,41.560766,1.053695
Castell de Sant Martí dels Castells,Castells,42.365089,1.712939
Castell de Sant Martí Sarroca ,Castells,41.380592,1.610345
Castell de Sant Mateu ,Castells,41.80106,1.741915
Castell de Sant Miquel,Castells,42.006912,2.862014
Castell de Sant Mori ,Castells,42.15395,2.990701
Castell de Sant Oïsme,Castells,41.998077,0.844638
Castell de Sant Quintí,Castells,41.460175,1.66665
Castell de Sant Romà d&#8217;Abella,Castells,42.142551,1.040027
Castell de Sant Salvador de Verdera,Castells,42.320068,3.167866
Castell de Santa Àgueda,Castells,40.0275,4.007778
Castell de Santa Coloma,Castells,41.533215,1.383929
Castell de Santa Engràcia,Castells,42.221935,0.874196
Castell de Santa Fe ,Castells,41.384586,1.721125
Castell de Santa Fe de Segarra ,Castells,41.700073,1.363662
Castell de Santa Florentina,Castells,41.600822,2.576812
Castell de Santa Linya,Castells,41.926861,0.800913
Castell de Santa Oliva ,Castells,41.253555,1.549499
Castell de Santa Pau ,Castells,42.144707,2.571761
Castell de Santa Perpètua,Castells,41.462704,1.39212
Castell de Santiga,Castells,41.534824,2.151918
Castell de Sarraí,Castells,42.301804,2.923809
Castell de Sarroca de Bellera ,Castells,42.358826,0.881369
Castell de Sarroca,Castells,41.458447,0.562886
Castell de Savallà,Castells,41.543728,1.299096
Castell de Savella,Castells,41.517616,1.246232
Castell de Secabecs,Castells,41.436638,1.554528
Castell de Seguer,Castells,41.442764,1.405038
Castell de Segueró,Castells,42.240398,2.749149
Castell de Segur,Castells,41.683178,1.468901
Castell de Segura,Castells,41.544395,1.26526
Castell de Selma,Castells,41.367222,1.461389
Castell de Selmella,Castells,41.421001,1.337693
Castell de Sentfores,Castells,41.90667,2.219128
Castell de Sentmenat ,Castells,41.616867,2.132826
Castell de Seró,Castells,41.875446,1.106207
Castell de Sisquer,Castells,42.135021,1.69323
Castell de Sitges ,Castells,41.235104,1.811854
Castell de Siurana,Castells,41.258274,0.935115
Castell de Siurana ,Castells,42.209454,2.994434
Castell de Solius,Castells,41.810181,2.964242
Castell de Solivella ,Castells,41.457161,1.176412
Castell de Solterra,Castells,41.923119,2.53305
Castell de Sorerols,Castells,41.99884,2.378846
Castell de Sort ,Castells,42.412392,1.129822
Castell de Subirats ,Castells,41.415905,1.817417
Castell de Sucs,Castells,41.7026,0.414492
Castell de Súria ,Castells,41.834808,1.751839
Castell de s’Avellana,Castells,41.970043,2.330089
Castell de Taialà,Castells,41.998848,2.791571
Castell de Talamanca ,Castells,41.739182,1.976472
Castell de Talarn ,Castells,42.185593,0.901051
Castell de Talteüll,Castells,41.819336,1.328313
Castell de Tamarit,Castells,41.130081,1.361173
Castell de Taradell ,Castells,41.865448,2.310331
Castell de Tàrrega,Castells,41.645836,1.137404
Castell de Tarrés ,Castells,41.422344,1.020677
Castell de Tartareu,Castells,41.920647,0.718778
Castell de Tenasses,Castells,40.820556,0.527778
Castell de Térmens,Castells,41.719139,0.758818
Castell de Terrades ,Castells,42.307343,2.858964
Castell de Terrassola,Castells,42.063515,1.433976
Castell de Terrassola,Castells,41.447674,1.726669
Castell de Timor,Castells,41.6425,1.329444
Castell de Tírvia ,Castells,42.515051,1.242793
Castell de Toló,Castells,42.058178,1.031714
Castell de Toloriu,Castells,42.363007,1.628501
Castell de Tona ,Castells,41.854942,2.224705
Castell de Tor,Castells,42.571678,1.397931
Castell de Toralla,Castells,42.264687,0.923297
Castell de Torcafelló,Castells,41.770222,2.721112
Castell de Torelló,Castells,42.073532,2.265386
Castell de Torlanda,Castells,41.500927,1.292666
Castell de Tornamira,Castells,41.949413,2.059942
Castell de Torrebesses ,Castells,41.426952,0.594225
Castell de Torreblanca,Castells,41.938019,1.160452
Castell de Torredembarra ,Castells,41.146069,1.396031
Castell de Torregrossa ,Castells,41.581444,0.832193
Castell de Torrent ,Castells,41.952023,3.127697
Castell de Torroella,Castells,41.879871,1.701215
Castell de Torroella,Castells,41.908295,2.196153
Castell de Tost,Castells,42.272778,1.38373
Castell de Toudell,Castells,41.550785,1.968012
Castell de Tous,Castells,41.55941,1.525193
Castell de Tudela,Castells,41.992439,2.715026
Castell de Vacarisses,Castells,41.607655,1.918037
Castell de València d&#8217;Àneu,Castells,42.632465,1.116435
Castell de Vallclara ,Castells,41.375759,0.979363
Castell de Valldarques,Castells,42.144623,1.23502
Castell de Vallespinosa,Castells,41.444454,1.347992
Castell de Vallfogona,Castells,41.563217,1.235924
Castell de Vallfogona de Ripollès ,Castells,42.195953,2.302853
Castell de Vallgornera,Castells,42.305569,3.034126
Castell de Vallmoll ,Castells,41.243668,1.247914
Castell de Vallparadís,Castells,41.564621,2.019092
Castell de Vandellòs,Castells,41.020893,0.830492
Castell de Veciana ,Castells,41.656227,1.488175
Castell de Verdú ,Castells,41.61087,1.143941
Castell de Vergós Guerrejat,Castells,41.676586,1.353046
Castell de Vernet,Castells,41.904976,1.040783
Castell de Vespella,Castells,41.204376,1.359864
Castell de Vicfred ,Castells,41.773563,1.358799
Castell de Vielha ,Castells,42.701305,0.79594
Castell de Vila-rodona ,Castells,41.31168,1.360508
Castell de Vila-romà,Castells,41.882122,3.107709
Castell de Vila-Seca ,Castells,41.11483,1.147554
Castell de Vilac ,Castells,42.721859,0.797657
Castell de Vilademàger,Castells,41.471848,1.550974
Castell de Vilademuls ,Castells,42.138412,2.887956
Castell de Vilafortuny,Castells,41.072491,1.096399
Castell de Vilafreser,Castells,42.083035,2.878085
Castell de Vilagelans,Castells,41.976578,2.28702
Castell de Vilajoan,Castells,42.164719,2.934444
Castell de Vilallonga,Castells,41.702404,1.508512
Castell de Vilalta,Castells,41.640978,1.438645
Castell de Vilamitjana,Castells,42.147488,0.919115
Castell de Vilamur,Castells,42.379856,1.161324
Castell de Vilar,Castells,42.091198,2.32838
Castell de Vilardida ,Castells,41.28627,1.36297
Castell de Vilaritg,Castells,42.286312,2.833732
Castell de Vilarnadal,Castells,42.340694,2.954142
Castell de Vilassar,Castells,41.51775,2.356255
Castell de Vilaüt,Castells,42.298477,3.114506
Castell de Villavecchia,Castells,41.904999,2.539805
Castell de Vilobí,Castells,41.889217,2.742661
Castell de Vilopriu ,Castells,42.104328,2.991854
Castell de Vilves,Castells,41.917747,1.082904
Castell de Vinaixa ,Castells,41.42907,0.975914
Castell de Viu de Llevata,Castells,42.369183,0.815265
Castell de Voltregà,Castells,42.010155,2.20642
Castell de Voltrera,Castells,41.524311,1.925912
Castell de Vulpellac,Castells,41.960285,3.05407
Castell del Baró de les Quatre Torres,Castells,41.183018,1.373286
Castell del Brull ,Castells,41.816837,2.304455
Castell del Bullidor,Castells,41.691368,1.015793
Castell del Catllar,Castells,42.358959,2.29187
Castell del Catllar,Castells,41.175533,1.324593
Castell del Far ,Castells,42.252094,2.99574
Castell del Freixe,Castells,41.480366,1.74096
Castell del Llor,Castells,41.746414,1.308524
Castell del Meüll,Castells,42.118992,0.812436
Castell del Milà ,Castells,41.248055,1.206857
Castell del Montmell ,Castells,41.330826,1.457072
Castell del Paborde,Castells,41.216072,1.13576
Castell del Papiol ,Castells,41.438461,2.010005
Castell del Quer Foradat,Castells,42.324047,1.636287
Castell del Rei,Castells,41.116669,1.258045
Castell del Rourell ,Castells,41.223404,1.218753
Castell del Vilosell ,Castells,41.384132,0.946152
Castell dels Ardiaques,Castells,42.177509,2.969358
Castell dels Espolters,Castells,41.572769,0.602947
Castell dels Garidells ,Castells,41.208056,1.247222
Castell dels Gorgs,Castells,42.305443,2.922535
Castell dels Montcada,Castells,41.929218,2.256859
Castell dels Montgons,Castells,41.133722,1.225178
Castell dels Teixells,Castells,41.100124,0.998991
Castell d’Adons,Castells,42.333645,0.828867
Castell d’Aitona ,Castells,41.496389,0.459722
Castell d’Albesa ,Castells,41.752247,0.661875
Castell d’Alcanó ,Castells,41.481464,0.616734
Castell d’Alfés ,Castells,41.526329,0.628436
Castell d’Algerri ,Castells,41.817791,0.637548
Castell d’Alguaire,Castells,41.735855,0.578811
Castell d’Almenar ,Castells,41.797749,0.565185
Castell d’Almudèfer,Castells,41.02642,0.274446
Castell d’Alós de Balaguer ,Castells,41.914295,0.955518
Castell d’Alta-Riba,Castells,41.712265,1.365252
Castell d’Altafulla ,Castells,41.142754,1.37578
Castell d’Anglès,Castells,41.957397,2.640093
Castell d’Argentera,Castells,41.953419,1.032009
Castell d’Argimon,Castells,41.830559,2.635973
Castell d’Artesa,Castells,41.891869,1.054784
Castell d’Aspa ,Castells,41.497074,0.67096
Castell d’en Plaja,Castells,41.699505,2.859592
Castell d’Erillcastell,Castells,42.424149,0.80161
Castell d’Escarp,Castells,41.418056,0.355556
Castell d’Esparraguera,Castells,41.80196,2.243869
Castell d’Espasens,Castells,42.125134,2.836279
Castell d’Estaràs ,Castells,41.692142,1.377977
Castell d’Heures,Castells,41.902939,2.30111
Castell d’Ivorra ,Castells,41.771687,1.395433
Castell d’Ofegat,Castells,41.670666,1.155879
Castell d’Oliola,Castells,41.876377,1.173405
Castell d’Olost,Castells,41.97691,2.09447
Castell d’Oluja Jussana,Castells,41.697304,1.319215
Castell d’Orenga,Castells,41.991863,0.945404
Castell d’Orís ,Castells,42.058582,2.222631
Castell d’Os de Balaguer ,Castells,41.871731,0.717601
Castell Ferran,Castells,41.608288,1.764035
Castell Formós,Castells,41.794697,0.805719
Castell Garí,Castells,41.535972,2.412806
Castell i muralles d&#8217;Hostalric ,Castells,41.744175,2.633146
Castell i muralles d&#8217;Ullastret ,Castells,42.000744,3.068848
Castell i muralles de Bàscara ,Castells,42.160088,2.909186
Castell i muralles de Cervià,Castells,42.067619,2.908507
Castell i muralles de Cruïlles ,Castells,41.956188,3.011122
Castell i muralles de La Tallada d&#8217;Empordà ,Castells,42.079948,3.055404
Castell i muralles de Llagostera ,Castells,41.828846,2.892003
Castell i muralles de Montblanc ,Castells,41.377899,1.160635
Castell i muralles de Palau-sator ,Castells,41.989429,3.110133
Castell i muralles de Pals ,Castells,41.971821,3.144414
Castell i muralles de Peratallada,Castells,41.977013,3.089996
Castell i muralles de Tivissa ,Castells,41.04187,0.732983
Castell i muralles de Tudela de Segre,Castells,41.870834,1.085278
Castell i muralles de Verges ,Castells,42.061134,3.045836
Castell i muralles de Vilalba dels Arcs ,Castells,41.121278,0.410386
Castell i muralles d’Àger ,Castells,41.999817,0.762281
Castell i muralles d’Arnes ,Castells,40.90959,0.259396
Castell Marsans,Castells,41.866444,2.520161
Castell medieval del comte de Valltordera,Castells,41.691965,2.718322
Castell Monestir d&#8217;Escornalbou,Castells,41.127327,0.916261
Castell nou de Pontons ,Castells,41.407879,1.52445
Castell Roca de Baborers,Castells,42.16684,2.143793
Castell-convent de Penyafort,Castells,41.306313,1.658217
Castell-fortalesa de Glorieta,Castells,41.52,1.204835
Castell-Palau de Bellcaire,Castells,42.081074,3.094414
Castell-Palau de Boadella ,Castells,42.329929,2.85607
Castellet de Banyoles,Castells,41.060703,0.6646
Castellnou de Gemenells,Castells,41.302635,1.540824
Castelló de Meià,Castells,41.98457,0.981892
Castellot de Beuda ,Castells,42.244518,2.71302
Castellot de Mas Mateu,Castells,41.293877,1.405537
Castellot de Sant Joan,Castells,41.938039,1.160549
Castellot de Viver,Castells,41.953468,1.810386
Castellvell de Gemenells,Castells,41.305351,1.539545
Casteret de Bossòst ,Castells,42.799213,0.704429
Ciutadella de Roses ,Castells,42.265564,3.170594
El Tossal,Castells,41.915521,1.150522
Força de Prats,Castells,42.365658,1.836058
Fortí de la Reina,Castells,41.113338,1.266662
Fortí de Loreto,Castells,41.135941,1.27356
Fortí de Sant Jordi,Castells,41.11525,1.265541
Fortificació avançada del castell de Sant Joan,Castells,40.816273,0.5278
Torre de Castellar del Riu,Castells,42.116278,1.796722
Torre del Baró,Castells,41.451385,2.1763
Torre del Comte de Fígols,Castells,42.180083,1.862528
Torre Mas Guàrdia,Castells,41.615132,2.150259
Torre o fortalesa a Roca Santa,Castells,42.246616,1.043932
Casalot de la Morera,EpocaCarlina,41.798373,1.402069
Castell Carlista,EpocaCarlina,41.824083,1.8915
Castell de Flix ,EpocaCarlina,41.237854,0.555502
Castellot del Temps Carlí,EpocaCarlina,41.876324,0.878509
Fort de Maçanet de Cabrenys ,EpocaCarlina,42.384975,2.749431
Fort fuseller de Ferriols,EpocaCarlina,41.083597,0.480914
Fortí de La Torreta,EpocaCarlina,41.868575,1.879314
Fortí del Maurici,EpocaCarlina,41.86607,1.869677
Torre Carlina,EpocaCarlina,42.255352,3.072335
Fortificació de Boí,Muralles,42.522202,0.833665
Fortificació de Puigcerdà,Muralles,42.435333,1.92425
Fortificacions modernes del turó de la Seu Vella,Muralles,41.616986,0.626432
Muralla de Banyoles,Muralles,42.118337,2.767143
Muralla de Caldes de Malavella,Muralles,41.839154,2.809497
Muralla de Caldes de Montbui,Muralles,41.635861,2.160611
Muralla de Castell d’Empordà,Muralles,41.979139,3.043944
Muralla i estructures defensives medievals,Muralles,40.817972,0.526306
Muralles d&#8217;Alcover ,Muralles,41.261486,1.169583
Muralles d&#8217;Igualada ,Muralles,41.577778,1.617635
Muralles de Bagà,Muralles,42.253278,1.860111
Muralles de Balaguer ,Muralles,41.79092,0.803917
Muralles de Barcelona ,Muralles,41.374908,2.174267
Muralles de Berga,Muralles,42.105583,1.848611
Muralles de Calaf ,Muralles,41.733646,1.51036
Muralles de Cardona ,Muralles,41.915623,1.682563
Muralles de Castelló d&#8217;Empúries ,Muralles,42.260494,3.076369
Muralles de Cervera ,Muralles,41.668671,1.272445
Muralles de Constantí ,Muralles,41.153831,1.210732
Muralles de Falset ,Muralles,41.146023,0.817843
Muralles de Girona ,Muralles,41.981037,2.824261
Muralles de la Selva de Mar ,Muralles,42.324345,3.186145
Muralles de La Selva del Camp ,Muralles,41.21397,1.138967
Muralles de Manresa,Muralles,41.725291,1.825803
Muralles de Mataró ,Muralles,41.541908,2.444848
Muralles de Mont-roig del Camp,Muralles,41.087719,0.958911
Muralles de Prades ,Muralles,41.310856,0.987664
Muralles de Pratdip ,Muralles,41.051102,0.87098
Muralles de Rupià,Muralles,42.021354,3.011043
Muralles de Sant Joan de les Abadesses ,Muralles,42.232395,2.286556
Muralles de Sant Llorenç de la Muga ,Muralles,42.320004,2.790323
Muralles de Santa Coloma de Queralt,Muralles,41.531702,1.382888
Muralles de Santpedor,Muralles,41.785429,1.838635
Muralles de Sitges ,Muralles,41.235703,1.812256
Muralles de Solsona ,Muralles,41.993839,1.518162
Muralles de Tarragona ,Muralles,41.118649,1.254941
Muralles de Tàrrega,Muralles,41.644073,1.138855
Muralles de Torà ,Muralles,41.813038,1.404442
Muralles de Torroella de Montgrí ,Muralles,42.044064,3.126377
Muralles de Tossa de Mar ,Muralles,41.716949,2.932459
Muralles de Tremp ,Muralles,42.167492,0.895976
Muralles de Vic ,Muralles,41.928677,2.257594
Muralles de Vila-seca ,Muralles,41.111271,1.145421
Muralles d’Altafulla ,Muralles,41.141373,1.375735
Muralles d’El Pinell de Brai ,Muralles,41.01547,0.514365
Muralles i torres de defensa,Muralles,42.372528,2.921028
Murs i antics portals d’accés de Torrefeta,Muralles,41.753889,1.274444
Passeig de Ronda,Muralles,40.814961,0.522986
Recinte emmurallat de Madremanya,Muralles,41.990087,2.957242
Recinte fortificat de Regencós ,Muralles,41.952002,3.169622
Restes de murs i fortificacions,Muralles,42.476673,0.716112
Agulla de Pola,Torres,41.73423,2.95319
Can Coll,Torres,41.584953,2.240015
Can Vilar,Torres,41.636845,2.504156
Fortificació La Presó,Torres,42.341639,1.842306
La Bessa,Torres,41.790861,2.364444
La Masó de Selma ,Torres,41.36535,1.4478
La Sala,Torres,42.087028,2.761889
La Torrassa,Torres,42.570633,1.140245
La Torrassa,Torres,42.349694,1.944028
La Torre ,Torres,41.137444,0.987833
La Torre,Torres,41.745278,1.724778
La Torre,Torres,41.01955,0.831752
La Torre de Bianya,Torres,42.209377,2.438225
La Torre Molí de Vent,Torres,41.954778,1.419083
La Torre,Torres,41.829345,0.572558
La Torre,Torres,41.675278,2.204444
La Torre,Torres,41.899586,1.358576
La Torre,Torres,42.044483,2.942044
La Torreforta,Torres,41.119194,1.22025
La Torreta,Torres,42.293137,3.186892
Les Torretes,Torres,41.607947,2.641853
Mas de la Torre,Torres,41.606330,2.354070
Mas de la Torre de Cruïlles,Torres,41.961636,3.023979
Mas de la Torre de Monells,Torres,41.973156,3.007641
Mas de les Torres,Torres,42.281417,3.043833
Mas d’en Porxo ,Torres,41.073556,0.889444
Masia de la Torre de Flot,Torres,41.954491,1.519771
Molí del Vent,Torres,40.871694,0.713333
Tor deth Generau Martinhon,Torres,42.70126,0.794443
Torrassa del moro,Torres,41.618763,2.386031
Torrassa dels moros,Torres,41.769669,2.165732
Torre a la vora de la masia Vilesa,Torres,42.318249,1.093303
Torre Albertí,Torres,41.826887,2.890186
Torre Baldovina,Torres,41.447028,2.209472
Torre Barona,Torres,41.269508,1.962558
Torre Begura,Torres,42.040836,3.153776
Torre Busquets,Torres,41.571632,2.525714
Torre Calsina,Torres,42.26601,3.164238
Torre Canal,Torres,41.960428,2.251413
Torre carlina,Torres,41.179783,0.565799
Torre Cavallera,Torres,42.297398,2.348958
Torre Climent Savall,Torres,41.282509,1.981432
Torre Cornèlia,Torres,41.987917,2.826082
Torre d&#8217;Amargós,Torres,42.10194,0.744855
Torre d&#8217;Ambigats,Torres,41.39246,1.233787
Torre d&#8217;Antoni,Torres,41.283764,1.980685
Torre d&#8217;Arboçar de Baix ,Torres,41.329605,1.76105
Torre d&#8217;en Corder,Torres,40.849133,0.512656
Torre d&#8217;en Deri,Torres,41.983891,3.155392
Torre d&#8217;en Garrell,Torres,41.230488,1.720382
Torre d&#8217;en Plats i Olles,Torres,41.230732,1.728834
Torre d&#8217;en Rafael de Casanova,Torres,41.818905,2.136803
Torre d&#8217;en Vallès,Torres,41.221989,1.69786
Torre d&#8217;en Virós,Torres,42.443836,1.134368
Torre d&#8217;Enveja,Torres,41.224854,1.713392
Torre d&#8217;Escaló ,Torres,42.548477,1.154581
Torre d&#8217;Estorm,Torres,42.086643,0.840996
Torre de Bac i Basset,Torres,41.941494,2.797689
Torre de Ballester,Torres,41.777729,1.435422
Torre de Bellvei ,Torres,41.241013,1.576551
Torre de Benixarop,Torres,40.790653,0.614776
Torre de Benviure,Torres,41.343533,2.017068
Torre de Bernat de So,Torres,42.465008,1.982158
Torre de Bolvir ,Torres,42.422581,1.882093
Torre de Bràfim ,Torres,41.277901,1.352273
Torre de Briolf,Torres,42.169,2.689028
Torre de Burgasènia,Torres,40.733036,0.595941
Torre de Ca la Miquelina,Torres,41.167896,1.441481
Torre de Ca l’Aymar (Can Casquet),Torres,41.691444,2.494750
Torre de Ca N&#8217;Armanac,Torres,41.954346,3.208299
Torre de Ca n’Altimira,Torres,41.524662,2.138997
Torre de Ca n’Alzina,Torres,41.466213,2.280562
Torre de Ca n’Amat,Torres,41.516399,2.384271
Torre de Ca n’Umbert,Torres,41.470463,2.281063
Torre de ca n’Ustrell,Torres,41.580772,2.068399
Torre de Cadell,Torres,42.354649,1.799875
Torre de Cal Felip,Torres,41.374336,2.049079
Torre de Cal Ferrer,Torres,42.165108,3.008521
Torre de Cal Jeroni,Torres,41.167946,1.440472
Torre de Cal Pepó,Torres,41.413776,1.545982
Torre de Cal Peyrí ,Torres,41.113564,0.936825
Torre de Cal Rei,Torres,41.421692,1.500642
Torre de Cal Torra,Torres,41.780535,1.262376
Torre de Cal Torratxar,Torres,41.105312,0.961309
Torre de Cal Xamanet,Torres,41.421398,1.498387
Torre de Calella,Torres,41.889004,3.190256
Torre de Camarles ,Torres,40.777302,0.674385
Torre de Campredó,Torres,40.746113,0.579444
Torre de Can Bas,Torres,41.818545,3.060599
Torre de Can Basses,Torres,42.095167,2.764333
Torre de Can Boera,Torres,41.915623,3.160584
Torre de Can Bonet d’Avall,Torres,41.638428,2.709376
Torre de Can Colom,Torres,41.904556,3.143556
Torre de Can Daussà,Torres,41.818409,3.045387
Torre de Can Faixat,Torres,42.109085,2.922392
Torre de Can Fiego,Torres,41.908161,3.168518
Torre de Can Gich,Torres,41.718781,2.928752
Torre de Can Gomar,Torres,41.283192,1.978822
Torre de Can Guixó,Torres,41.419975,1.496166
Torre de Can Maians,Torres,41.51255,2.362778
Torre de Can Marquès,Torres,41.954773,3.20835
Torre de Can Modolell,Torres,41.316051,2.020098
Torre de Can Moliner,Torres,41.283398,1.981321
Torre de Can Moragues,Torres,41.569103,2.239897
Torre de Can Ninetes,Torres,41.977719,2.807028
Torre de Can Palauet,Torres,41.538948,2.420146
Torre de Can Pascol,Torres,41.348484,1.573904
Torre de Can Pella i Forgas,Torres,41.954746,3.206204
Torre de Can Pujades,Torres,41.494972,2.331583
Torre de Can Pujol,Torres,42.141972,2.791861
Torre de Can Riambau,Torres,41.811077,3.041764
Torre de Can Roca de Baix,Torres,41.282516,1.977858
Torre de Can Rosés,Torres,41.293372,1.991045
Torre de Can Sicars,Torres,41.814041,3.026775
Torre de Can Sitjar,Torres,41.964284,2.792067
Torre de Can Toni Joan,Torres,41.68322,2.760281
Torre de Can Tria de Mata,Torres,41.565201,2.464314
Torre de Can Valls de la muntanyeta,Torres,41.280106,1.974064
Torre de Can Valls,Torres,41.567577,2.51498
Torre de Can Veïl,Torres,41.517731,2.381287
Torre de Can Werboom,Torres,41.500908,2.34571
Torre de Can Xacó,Torres,41.168476,1.440188
Torre de Canadell,Torres,42.224514,2.532091
Torre de Capafonts,Torres,41.295444,1.026571
Torre de Cararac,Torres,41.648194,2.168389
Torre de Carmanxel,Torres,42.419365,2.876693
Torre de Cartellà,Torres,41.769077,2.757944
Torre de Castellnou de Bages ,Torres,41.851017,1.830144
Torre de Cérvoles,Torres,41.881108,0.656474
Torre de Corsavell,Torres,42.312458,2.664842
Torre de Cucurull,Torres,41.1889,1.446456
Torre de Das ,Torres,42.359886,1.866815
Torre de defensa,Torres,41.729969,2.063673
Torre de defensa de Campdàsens,Torres,41.260372,1.878611
Torre de defensa de Can Amell,Torres,41.251118,1.875285
Torre de defensa de Can Planes,Torres,41.26936,1.873212
Torre de defensa de l&#8217;antic Molí de la Torre,Torres,41.973278,3.028453
Torre de defensa de la masia de Can Cànoves,Torres,41.639222,2.676611
Torre de defensa de la plaça Major d&#8217;Olp,Torres,42.430153,1.114163
Torre de defensa de la plaça Major de Sort ,Torres,42.411369,1.129985
Torre de defensa de Son del Pi,Torres,42.620735,1.096914
Torre de defensa del volcà Montolivet,Torres,42.179157,2.47845
Torre de defensa,Torres,41.698677,1.315629
Torre de Don Carles,Torres,41.876186,2.287291
Torre de Faia,Torres,42.265045,1.823325
Torre de Fellines,Torres,42.094013,2.891915
Torre de Ferragut,Torres,41.682484,1.378859
Torre de Fontdepou,Torres,41.961025,0.757536
Torre de Forcheron,Torres,40.668312,0.58716
Torre de Fullola,Torres,40.863907,0.645844
Torre de Garraf,Torres,41.255539,1.905887
Torre de Gassià,Torres,40.813417,0.566528
Torre de Gavadà,Torres,41.002945,0.78758
Torre de Gàver,Torres,41.688393,1.393054
Torre de Ginebret,Torres,41.988098,1.92898
Torre de Granadella,Torres,40.767731,0.662331
Torre de Granyena de Segarra,Torres,41.62035,1.248772
Torre de Grions,Torres,41.760841,2.609575
Torre de guaita de Portell,Torres,41.741993,1.384369
Torre de guaita de Sant Llorenç de la Muga ,Torres,42.31778,2.790374
Torre de guaita de Sant Martí de Llémena ,Torres,42.036358,2.647456
Torre de Joveró,Torres,41.585133,1.547737
Torre de l&#8217;Àngel,Torres,42.189644,2.924914
Torre de l&#8217;antic Hospital de Cervelló,Torres,41.345383,1.845977
Torre de l&#8217;ermita de la mare de Déu,Torres,40.731861,0.62802
Torre de l&#8217;església Vella,Torres,41.087727,0.958965
Torre de l&#8217;esquirol,Torres,41.064476,1.08498
Torre de l&#8217;Oriola,Torres,40.673988,0.588852
Torre de l&#8217;Ortigós,Torres,41.283672,1.518474
Torre de la Bestorre,Torres,41.60955,1.845025
Torre de la Candela,Torres,40.723068,0.59058
Torre de la Carrova,Torres,40.742962,0.561389
Torre de la Closa ,Torres,41.120762,1.003363
Torre de la Ferreria,Torres,41.822404,1.388324
Torre de la Font del Mingo,Torres,41.42421,1.782964
Torre de la Força,Torres,41.691500,2.494056
Torre de La Galera ,Torres,40.680954,0.462724
Torre de la Guàrdia d’Urgell,Torres,41.721472,1.055944
Torre de la Guardiola,Torres,40.6236,0.585878
Torre de la Guinovarda,Torres,41.36935,1.501892
Torre de la Immortalitat,Torres,41.229572,1.722426
Torre de la Llotja,Torres,40.739944,0.577056
Torre de la Manresana,Torres,41.696846,1.552028
Torre de la Mixarda,Torres,41.340981,1.254587
Torre de la Móra,Torres,41.125828,1.341923
Torre de La Panadella,Torres,41.619373,1.401669
Torre de la Penya del Moro,Torres,41.396824,2.068772
Torre de la Petja,Torres,40.785649,0.530174
Torre de la Plaça,Torres,42.363415,3.151963
Torre de la Plaça del Castell,Torres,41.284794,1.975828
Torre de La Pobla,Torres,41.814293,1.761935
Torre de la Presó (Gerri de la Sal),Torres,42.323769,1.064191
Torre de la Presó,Torres,41.635212,2.163086
Torre de la Quadra de Puigloret,Torres,41.368056,1.503333
Torre de la Riera,Torres,41.072212,1.055078
Torre de la Sénia,Torres,41.075394,1.050109
Torre de la Serra ,Torres,41.255653,1.752981
Torre de la Serra de la Petita,Torres,42.111012,1.855509
Torre de la Talaia,Torres,41.360249,2.097614
Torre de la Timba,Torres,41.586441,2.577191
Torre de la Torreta,Torres,41.327026,1.57863
Torre de la Vall,Torres,41.075005,0.524605
Torre de la Vall de Bac,Torres,42.264722,2.453056
Torre de la Vall,Torres,42.003998,2.420857
Torre de la Vila,Torres,42.175785,1.602883
Torre de les Bisaroques,Torres,42.182198,2.50297
Torre de les Conclues,Torres,42.016163,0.658799
Torre de les Destres,Torres,41.338257,1.379125
Torre de les Gunyoles,Torres,41.352352,1.779292
Torre de les Hores,Torres,42.067284,2.909239
Torre de les hores,Torres,42.308056,3.14975
Torre de les Hores,Torres,41.474681,1.931378
Torre de Lletger,Torres,41.29414,1.579172
Torre de l’Abella,Torres,41.170647,1.350618
Torre de l’església de Sant Jaume,Torres,41.600136,2.620259
Torre de L’Esparra,Torres,41.828217,2.660175
Torre de L’Espinal,Torres,42.000385,0.960217
Torre de l’Estanyet ,Torres,42.201667,2.974056
Torre de l’Hereu,Torres,42.186667,2.766667
Torre de l’Hostal,Torres,41.718369,2.931848
Torre de Mala Veïna,Torres,42.330902,3.036714
Torre de Martí,Torres,41.094421,0.314065
Torre de Mas Carboners,Torres,41.09494,1.168134
Torre de Mas Sorder,Torres,41.149212,1.317903
Torre de Masriudoms,Torres,41.020546,0.884456
Torre de Mataperunya,Torres,41.994774,0.940479
Torre de Meer,Torres,41.910267,1.673985
Torre de Mejanell,Torres,41.725803,1.38229
Torre de Moja ,Torres,41.326321,1.690325
Torre de Monnars,Torres,41.135612,1.305824
Torre de Montferri ,Torres,41.25156,1.367299
Torre de Montgó,Torres,42.110794,3.174142
Torre de Norfeu,Torres,42.243416,3.250274
Torre de Perauba,Torres,42.242092,1.090522
Torre de Pineda,Torres,41.096275,1.170648
Torre de Pinós,Torres,41.613976,2.299715
Torre de Poquessalses,Torres,40.673996,0.578628
Torre de Pujals dels Cavallers,Torres,42.105213,2.818723
Torre de Ratès,Torres,41.640335,2.708542
Torre de Ribes Roges,Torres,41.214531,1.725259
Torre de Riu,Torres,42.371788,1.897934
Torre de Rocasalva,Torres,42.010139,2.631419
Torre de Sa Fusta d&#8217;es Baluard,Torres,42.287464,3.277252
Torre de Salicrup,Torres,41.22472,1.742296
Torre de Salim,Torres,40.911255,0.832295
Torre de Salipota,Torres,41.832027,1.745008
Torre de Sallent,Torres,41.903656,1.3353
Torre de Sant Antoni,Torres,41.147694,1.372776
Torre de Sant Baldiri de Taballera,Torres,42.325706,3.229794
Torre de Sant Dionís,Torres,41.976635,2.79134
Torre de Sant Jaume,Torres,41.65722,2.675889
Torre de Sant Joan,Torres,40.635418,0.707481
Torre de Sant Joan,Torres,41.942947,2.569913
Torre de Sant Marçal,Torres,42.128304,2.868303
Torre de Sant Sebastià,Torres,41.897121,3.202847
Torre de Santa Bàrbara,Torres,41.682442,2.800814
Torre de Santa Caterina,Torres,41.718437,1.826442
Torre de Santa Margarida,Torres,42.207893,2.469488
Torre de Santa Margarida,Torres,41.906788,3.172047
Torre de Serrasanç,Torres,41.84824,1.893551
Torre de Soldevila,Torres,40.772437,0.539694
Torre de Talavera,Torres,41.581739,1.329664
Torre de Tamarit,Torres,41.130016,1.360875
Torre de Telegrafia Òptica de Castellolí,Torres,41.5886,1.70832
Torre de Telegrafia Òptica de Puigmarí,Torres,41.754611,2.730417
Torre de telegrafia òptica del Puiggraciós,Torres,41.706104,2.248509
Torre de telegrafia òptica i Capella de Sant Pere de Romaní,Torres,41.4062,2.031238
Torre de Telegrafia Òptica,Torres,41.95025,1.591639
Torre de Túbal,Torres,40.814667,0.523083
Torre de Valldans,Torres,41.912719,1.202127
Torre de Vallferosa,Torres,41.861881,1.44541
Torre de Viladellops,Torres,41.305485,1.736526
Torre de Vilamajor,Torres,41.837837,1.219198
Torre de Vilaseca,Torres,40.776454,0.504274
Torre de Vinyols i els Arcs ,Torres,41.113849,1.039306
Torre de Viola,Torres,41.196751,1.58175
Torre de Virgili,Torres,41.097111,1.189657
Torre de Vivet,Torres,42.177833,2.818194
Torre de&#8217;n Calvo,Torres,40.577187,0.535176
Torre de&#8217;n Morralla,Torres,40.574459,0.536788
Torre del Badorc,Torres,41.501404,1.728815
Torre del Baró,Torres,41.316177,2.020391
Torre del Bell-lloc,Torres,41.968958,2.806572
Torre del Botafoc,Torres,41.224159,1.529629
Torre del Botxí,Torres,41.915703,1.681699
Torre del Bou,Torres,41.076107,1.051012
Torre del Breny,Torres,41.678056,1.854722
Torre del campanar de Santa Maria de Palautordera ,Torres,41.692711,2.44463
Torre del Cargol,Torres,41.894211,1.135704
Torre del carrer Ample,Torres,41.579739,2.552527
Torre del carrer Nou,Torres,40.544113,0.48209
Torre del carrer Sant Ramon,Torres,41.95573,3.207611
Torre del Castell,Torres,41.648823,2.737795
Torre del Castellà,Torres,41.094906,0.308408
Torre del Célio,Torres,40.818306,0.526222
Torre del Cintoi,Torres,41.213123,1.534336
Torre del Clos,Torres,41.470264,1.931516
Torre del Clot dels Frares ,Torres,41.237315,1.781118
Torre del Coll de l’Alba,Torres,40.816139,0.571
Torre del Fargas,Torres,41.15825,1.045472
Torre del Gili,Torres,41.676445,1.328495
Torre del Llimó,Torres,41.074574,1.050973
Torre del Madico,Torres,41.105335,0.960861
Torre del Mas Agustí,Torres,41.863537,3.145622
Torre del Mas Cal Rei,Torres,42.081436,3.022322
Torre del Mas Costa de la Cavalleria,Torres,41.9809,1.975332
Torre del Mas Cusidor,Torres,41.14389,1.328568
Torre del Mas d&#8217;en Blai,Torres,41.101944,1.017273
Torre del Mas d&#8217;en Pinc,Torres,41.958836,3.212311
Torre del mas de Don Felip ,Torres,41.100415,1.077395
Torre del Mas de l&#8217;Hereu,Torres,41.107647,0.981458
Torre del Mas de la Creu,Torres,41.15073,1.310222
Torre del Mas de la Pietat,Torres,41.871418,3.121846
Torre del Mas de l’Hereuet,Torres,41.13747,1.302698
Torre del Mas de Mauri de Vall,Torres,41.954632,3.204762
Torre del Mas del Bisbe,Torres,41.085888,1.084628
Torre del Mas del Ciuró,Torres,41.891994,2.024706
Torre del Mas d’en Grimau,Torres,41.131199,1.33063
Torre del Mas d’en Nin,Torres,41.183308,1.441272
Torre del mas Figueroles,Torres,41.831111,2.294583
Torre del Mas Fina,Torres,41.89431,3.163302
Torre del Mas Francàs,Torres,41.179329,1.498593
Torre del Mas Galter,Torres,41.637257,2.705642
Torre del Mas La Garriga,Torres,41.892496,1.61114
Torre del Mas Llorens,Torres,41.974438,2.78081
Torre del Mas Marès,Torres,42.253155,3.202505
Torre del Mas Massaller,Torres,42.080889,3.022543
Torre del Mas Miralpeix,Torres,41.229943,1.77217
Torre del Mas Montjoi de Baix,Torres,42.256943,3.221459
Torre del Mas Pastoret,Torres,41.15773,1.308416
Torre del Mas Pepó,Torres,41.862262,3.140111
Torre del Mas Petit d&#8217;en Caixa,Torres,41.896534,3.165326
Torre del Mas Ral,Torres,42.045841,3.162205
Torre del Mas Sureda,Torres,41.89633,3.167544
Torre del Mas Tomasi,Torres,41.980541,3.168904
Torre del Mas Vilanera,Torres,42.118446,3.1132
Torre del Mas Xec,Torres,41.870117,3.142011
Torre del mirador,Torres,41.102812,1.021901
Torre del Molí de Bítem,Torres,40.854306,0.528
Torre del moro I,Torres,40.616943,0.574851
Torre del moro II,Torres,40.617855,0.570855
Torre del moro III,Torres,40.616695,0.566622
Torre del Palau,Torres,41.562347,2.010853
Torre del Palau Comtal,Torres,41.683987,2.388156
Torre del Papiol,Torres,41.283321,1.603907
Torre del Pedró,Torres,42.126781,3.127933
Torre del Petrol,Torres,41.315182,1.191233
Torre del Pla de les Forques,Torres,42.148963,2.536614
Torre del Port,Torres,41.065578,1.060036
Torre del Prior,Torres,40.838272,0.516717
Torre del Prior,Torres,40.9625,0.330059
Torre del Pubill,Torres,42.50581,0.80138
Torre del Puig,Torres,41.215889,1.538577
Torre del Puig Torretes,Torres,41.921444,3.15883
Torre del Raval,Torres,41.775124,1.435017
Torre del rellotge,Torres,41.545547,1.893739
Torre del Riu,Torres,42.120457,1.762887
Torre del Santmartí,Torres,41.75629,1.877764
Torre del Santuari del Camí,Torres,41.071568,1.050938
Torre del Sastre,Torres,42.246876,3.215357
Torre del Serrat de la Plaça,Torres,42.416405,2.869594
Torre del Telègraf,Torres,41.192616,1.508689
Torre del Telègraf,Torres,41.77631,1.790476
Torre del telègraf de Can Dolcet,Torres,41.556344,1.816505
Torre del Telègraf de l’Ordal,Torres,41.394919,1.874681
Torre del telègraf de Montornès del Vallès,Torres,41.540778,2.250356
Torre del Telègraf Òptic,Torres,41.98693,2.82741
Torre del Telègraf,Torres,41.949573,2.737207
Torre del Telègraf,Torres,41.673497,1.791434
Torre del Telègraf,Torres,41.503413,2.394045
Torre del Torn ,Torres,40.966361,0.890889
Torre del Veguer,Torres,41.251003,1.73456
Torre del Xut,Torres,42.207741,0.93803
Torre dels Alamús,Torres,41.619549,0.709782
Torre dels Colomers,Torres,42.327866,1.047362
Torre dels Encantats,Torres,41.571827,2.530282
Torre dels Galls Carnuts,Torres,41.381721,1.511838
Torre dels Joiells,Torres,41.688496,1.207917
Torre dels moros ,Torres,41.158434,1.023027
Torre dels moros,Torres,41.431667,2.155361
Torre dels moros,Torres,41.658962,1.655475
Torre dels moros,Torres,40.871525,0.725811
Torre dels moros,Torres,42.574738,1.085675
Torre dels moros,Torres,42.052612,1.269071
Torre dels moros,Torres,41.154041,0.989142
Torre dels moros o del bosc de la perxa,Torres,41.258244,0.972639
Torre dels Moros,Torres,41.604444,1.704722
Torre dels Moscats,Torres,42.052166,3.151224
Torre dels Soldats,Torres,41.871643,1.982906
Torre des moros,Torres,41.718941,2.927299
Torre Descalç,Torres,42.099917,2.7275
Torre Desvern,Torres,42.022087,2.88286
Torre d’Algorfa,Torres,41.442992,0.382644
Torre d’Arandes,Torres,41.117263,1.256356
Torre d’en Cabirol,Torres,41.578869,2.550336
Torre d’en Carlos,Torres,41.770992,1.279105
Torre d’en Dolça,Torres,41.099033,1.159929
Torre d’en Gorgs,Torres,41.511426,2.120364
Torre d’en Llobet,Torres,41.578499,2.549084
Torre d’en Malla,Torres,41.563915,2.211277
Torre d’en Nadal,Torres,41.503368,2.394501
Torre d’en Pega,Torres,41.763814,2.537191
Torre d’en Pinyol,Torres,40.845028,0.501111
Torre d’en Tintorer,Torres,41.117914,1.253978
Torre d’Escarrega,Torres,41.358469,0.47024
Torre d’Onofre Arnau,Torres,41.554943,2.468575
Torre d’Osor ,Torres,41.945126,2.556459
Torre Fael,Torres,41.27739,1.965826
Torre Ferrana,Torres,42.083046,3.131734
Torre Forta de Santa Cristina,Torres,41.271778,1.440158
Torre Fossada,Torres,41.474449,1.941788
Torre Gabriel Folcher,Torres,41.282257,1.980866
Torre Galatea,Torres,42.268167,2.959083
Torre Ginebrell,Torres,42.129822,0.828164
Torre Grallera,Torres,41.688822,0.622186
Torre Gran,Torres,42.052296,3.170736
Torre Griminella,Torres,41.470257,1.9342
Torre Guinarda,Torres,41.978172,3.027629
Torre i masia de Cal Baster,Torres,41.499361,2.321639
Torre La Quintaneta,Torres,42.046844,3.157061
Torre la Talaia de Calafell,Torres,41.199341,1.590974
Torre la Torrassa,Torres,41.467068,1.908459
Torre La Vila,Torres,42.209423,2.421874
Torre Marata,Torres,41.646389,2.323194
Torre Marata,Torres,41.784,2.718424
Torre Martina,Torres,42.049011,3.160539
Torre Mirona,Torres,41.874401,3.149211
Torre Mirona,Torres,41.97092,2.776667
Torre Montagut,Torres,41.650314,2.714798
Torre Mora,Torres,41.983978,3.201967
Torre Moratxa,Torres,42.055721,3.183723
Torre Morgadès,Torres,41.939896,2.293251
Torre Moruna,Torres,41.269272,1.95724
Torre Nova d’en Carlos,Torres,41.77951,1.281761
Torre Nova,Torres,41.068861,1.146832
Torre Pallaresa,Torres,41.464497,2.217585
Torre Pilar d’Almenara,Torres,41.753407,1.066929
Torre Pla de la Torre,Torres,41.630035,2.715869
Torre Ponça,Torres,42.06131,3.188563
Torre Ponça,Torres,41.878902,2.802055
Torre Quimeta,Torres,42.265999,3.164942
Torre Rodona,Torres,41.581264,1.433536
Torre Rodona,Torres,41.385845,2.123703
Torre Rodona,Torres,42.187694,2.408472
Torre Rodona,Torres,41.768015,1.144251
Torre Roja,Torres,41.904423,3.163839
Torre Roja,Torres,41.320263,2.022365
Torre Roja,Torres,41.633072,2.143511
Torre Rufina,Torres,41.986091,2.826882
Torre Salvana,Torres,41.36586,2.028734
Torre Saportella,Torres,41.65807,1.212093
Torre Seguera,Torres,41.816254,3.034763
Torre sense identificar,Torres,41.651861,2.159500
Torre sepulcral de Vilablareix ,Torres,41.95443,2.774002
Torre Simona,Torres,41.897854,3.15034
Torre Sobirana,Torres,41.439278,2.146529
Torre Solsona,Torres,42.361439,1.449696
Torre Suchet,Torres,41.990162,2.831373
Torre Valentina,Torres,41.837357,3.092772
Torre Vall Xirau,Torres,41.639248,2.715597
Torre Vella del Mas Galí,Torres,41.93066,2.208729
Torre Vella,Torres,41.078171,1.128995
Torre Verda,Torres,41.571941,2.526487
Torre Vescomtal,Torres,41.985564,2.826078
Torre Vila-seca,Torres,41.917331,3.174058
Torreó de Miami Platja,Torres,41.011032,0.946597
Torres d&#8217;Ogern,Torres,42.023628,1.340472
Torres de Can Borrull,Torres,41.907345,3.172211
Torres de Cas,Torres,41.969803,0.792941
Torres de defensa de les Corts ,Torres,42.12487,3.112831
Torres de defensa del Mas Mont-ravà,Torres,41.265396,1.129679
Torres de defensa del volcà Montsacopa,Torres,42.188332,2.487886
Torres de Fals,Torres,41.756718,1.735137
Torres de Puig Ardina,Torres,41.806364,2.715117
Torres del Fum i del Corn,Torres,41.780117,3.026701
Torres del Mas d&#8217;en Coll,Torres,42.284512,3.178186
Torres del Mas de Ramon,Torres,41.092686,1.095397
Torrota de Can Llopart,Torres,41.408672,1.800811
Torrota de l&#8217;Obac,Torres,41.628826,1.968867
Torrota de Vacarisses,Torres,41.610554,1.907792
Torrota del moro,Torres,41.389031,1.762786
Basílica de Sant Feliu,Basilica,41.98804,2.825
Basílica de Santa Maria,Basilica,42.259514,3.075906
Basílica de Santa Maria,Basilica,41.347098,1.697644
Basílica paleocristiana de Bovalar,Basilica,41.45517,0.426927
Església de Santa Maria de l’Alba,Basilica,41.72225,1.826956
Catedral de Girona,Catedral,41.987346,2.826544
Catedral de Sant Pere,Catedral,41.928177,2.25536
Catedral de Santa Maria,Catedral,42.357868,1.461788
Catedral de Santa Maria,Catedral,41.994311,1.519605
Catedral de Tarragona,Catedral,41.119038,1.257953
Catedral de Tortosa,Catedral,40.814306,0.522611
Seu Nova,Catedral,41.613278,0.622874
Seu Vella,Catedral,41.618143,0.626981
Capella de Cal Casalets ,Ermita,41.996718,1.51585
Capella de Calders,Ermita,41.978487,2.673729
Capella de Can Camà (*),Ermita,42.036239,2.227548
Capella de Can Font de la Serra,Ermita,41.740513,1.833352
Capella de la Bona Sort,Ermita,42.006944,2.029444
Capella de la Mare de Déu de Bruguers,Ermita,41.3146,1.961161
Capella de la Mare de Déu de la Llinda,Ermita,41.384464,1.756661
Capella de la Mare de Déu de les Arenes,Ermita,41.646975,2.053465
Capella de la Mare de Déu de l’Erola,Ermita,41.6695,2.634056
Capella de la Mare de Déu de l’Esperança,Ermita,42.419444,1.878944
Capella de la Mare de Déu de Montcorb,Ermita,41.809901,2.701344
Capella de la Mare de Déu del Bellvilar,Ermita,41.754196,1.209936
Capella de la Mare de Déu del Coll,Ermita,41.590278,1.2925
Capella de la Mare de Déu del Part,Ermita,41.95825,2.540667
Capella de la Mare de Déu del Pla ,Ermita,41.658472,2.323472
Capella de la Mare de Déu del Remei,Ermita,42.050948,2.104327
Capella de la Mare de Déu del Roser,Ermita,42.36334,1.629273
Capella de la Mare de Déu del Roser,Ermita,41.988143,1.844896
Capella de la Mercè,Ermita,42.154528,1.984194
Capella de la Pietat,Ermita,42.10522,1.847089
Capella de la Pietat,Ermita,41.986698,2.701631
Capella de la Pietat,Ermita,42.135725,1.592642
Capella de la Verge del Vinyet,Ermita,41.340103,1.586875
Capella de la Verge Maria,Ermita,41.137612,1.050755
Capella de Les Eres de Guardiolans,Ermita,42.132917,1.955389
Capella de les Fonts,Ermita,41.483806,1.443167
Capella de Miralles,Ermita,41.878,1.571583
Capella de Nostra Senyora de la Font,Ermita,42.146413,2.782404
Capella de Nostra Senyora del Roser,Ermita,42.07535,2.506609
Capella de San Esteve de Vila-setrú,Ermita,42.00704,2.27027
Capella de Sant Andreu de Comallonga,Ermita,41.785623,1.709684
Capella de Sant Andreu de Llanars,Ermita,42.003895,2.009167
Capella de Sant Andreu de l’Avellà,Ermita,41.445034,1.616178
Capella de Sant Andreu del castell de Clarà,Ermita,41.819989,2.080334
Capella de Sant Andreu,Ermita,42.322222,2.790222
Capella de Sant Andreu,Ermita,41.683982,2.696098
Capella de Sant Antolí,Ermita,41.618806,1.857667
Capella de Sant Antoni de la Salvetat,Ermita,42.065133,3.00513
Capella de Sant Antoni de Santes Masses,Ermita,41.967806,1.310974
Capella de Sant Antoni,Ermita,42.089893,2.817652
Capella de Sant Antoni,Ermita,40.95355,0.346069
Capella de Sant Baldiri,Ermita,41.60687,2.23585
Capella de Sant Bartomeu de Basset,Ermita,42.184167,2.782222
Capella de Sant Bartomeu de la Vall de Vilaramó,Ermita,41.962957,1.942063
Capella de Sant Bartomeu de Trullars,Ermita,41.959455,2.668474
Capella de Sant Bartomeu,Ermita,41.562417,2.343306
Capella de Sant Bartomeu,Ermita,41.442861,1.405307
Capella de Sant Benet d’Espiells,Ermita,41.439236,1.811708
Capella de Sant Benet,Ermita,41.73437,2.897725
Capella de Sant Bernabé d’Aguilera,Ermita,41.614897,1.663088
Capella de Sant Corneli i Sant Cebrià,Ermita,41.638583,2.356516
Capella de Sant Cristòfol,Ermita,41.516167,2.384472
Capella de Sant Cristòfol,Ermita,41.414681,1.902747
Capella de Sant Daniel,Ermita,41.702972,2.761611
Capella de Sant Elies,Ermita,41.492111,1.667706
Capella de Sant Elm,Ermita,41.77463,3.02734
Capella de Sant Esteve de Moja,Ermita,41.325889,1.690928
Capella de Sant Esteve de Vilert,Ermita,42.173661,2.821237
Capella de Sant Esteve,Ermita,41.56426,1.18577
Capella de Sant Eudald,Ermita,41.906274,0.997663
Capella de Sant Feliu,Ermita,42.101512,0.875127
Capella de Sant Francesc s’hi Moria,Ermita,41.954443,2.283152
Capella de Sant Fruitós del Grau,Ermita,41.958621,2.269545
Capella de Sant Fruitós,Ermita,41.622167,2.130167
Capella de Sant Genís,Ermita,41.585526,2.183978
Capella de Sant Gervàs,Ermita,42.070833,0.970556
Capella de Sant Grau,Ermita,42.109363,3.059191
Capella de Sant Hilari,Ermita,41.520828,1.911614
Capella de Sant Iscle i Santa Victòria de Can Guilla,Ermita,41.668290,2.306540
Capella de Sant Iscle i Santa Victòria,Ermita,41.988625,2.97094
Capella de Sant Jaume de Castelló,Ermita,41.552397,1.927256
Capella de Sant Jaume de Rossells,Ermita,41.937478,1.324634
Capella de Sant Jaume dels Malalts,Ermita,41.921595,2.258752
Capella de Sant Jaume,Ermita,41.452806,1.925861
Capella de Sant Jaume,Ermita,41.997222,2.824722
Capella de Sant Joan de la Maçana ,Ermita,41.415851,1.634505
Capella de Sant Joan de la Muntanya,Ermita,41.408011,1.525003
Capella de Sant Joan de Palamós,Ermita,41.64039,1.3793
Capella de Sant Joan de Puig-redon,Ermita,41.836823,1.413623
Capella de Sant Joan de Viladellops,Ermita,41.305,1.735278
Capella de Sant Joan del Pla,Ermita,41.406111,1.97875
Capella de Sant Joan d’Enveja,Ermita,41.224695,1.713841
Capella de Sant Joan Samora,Ermita,41.472061,1.866081
Capella de Sant Joan,Ermita,41.474783,1.935183
Capella de Sant Joan,Ermita,42.02361,2.67903
Capella de Sant Joan,Ermita,42.119417,2.178917
Capella de Sant Joaquim d’Olivars,Ermita,42.051111,2.841667
Capella de Sant Jordi de Puigseslloses,Ermita,41.947806,2.2965
Capella de Sant Jordi,Ermita,42.328306,2.766111
Capella de Sant Julià de Vilamirosa,Ermita,41.991642,2.276955
Capella de Sant Llorenç de la Fontcalçada,Ermita,41.478373,2.046268
Capella de Sant Llorenç,Ermita,42.079333,2.87225
Capella de Sant Macari,Ermita,41.626111,1.55075
Capella de Sant Magí,Ermita,41.528921,1.392531
Capella de Sant Magí,Ermita,41.120164,1.260142
Capella de Sant Mamet de Bacardit,Ermita,41.786175,1.667256
Capella de Sant Marc,Ermita,41.721497,1.829699
Capella de Sant Martí de Ca n’Amat Gros,Ermita,41.96975,2.6974
Capella de Sant Martí de la Móra,Ermita,42.10464,2.933385
Capella de Sant Martí de Pascol,Ermita,41.641028,2.140806
Capella de Sant Martí d’Aravó,Ermita,42.431389,1.908333
Capella de Sant Martí Sadevesa,Ermita,41.431925,1.692054
Capella de Sant Martí,Ermita,41.471245,2.279074
Capella de Sant Mateu,Ermita,42.08994,2.960397
Capella de Sant Medir,Ermita,42.019886,2.690892
Capella de Sant Miquel de Centenys,Ermita,42.162265,2.785286
Capella de Sant Miquel de Cirera,Ermita,41.711447,1.724729
Capella de Sant Miquel de Gallifa,Ermita,42.074831,2.17892
Capella de Sant Miquel de Martres,Ermita,41.638111,2.190056
Capella de Sant Miquel de Vilaclara,Ermita,41.589607,1.749549
Capella de Sant Miquel d’Oló,Ermita,41.873792,2.069739
Capella de Sant Miquel d’Ordeig,Ermita,42.035371,2.221854
Capella de Sant Miquel,Ermita,41.747726,1.628396
Capella de Sant Miquel,Ermita,41.337584,1.578619
Capella de Sant Muç,Ermita,41.509056,2.022139
Capella de Sant Nazari de la Garriga,Ermita,41.901681,2.054905
Capella de Sant Nicolau,Ermita,41.553972,2.122389
Capella de Sant Onofre,Ermita,40.956818,0.333072
Capella de Sant Pau de Fornils,Ermita,42.01602,2.51937
Capella de Sant Pau,Ermita,40.956818,0.333072
Capella de Sant Pau,Ermita,41.120205,1.258512
Capella de Sant Pere al Puig,Ermita,42.096306,2.187472
Capella de Sant Pere de Comalats,Ermita,41.65019,1.528411
Capella de Sant Pere de Muller,Ermita,41.708313,1.208815
Capella de Sant Pere de Romaní,Ermita,41.406167,2.031278
Capella de Sant Pere del Soler,Ermita,42.007348,1.217099
Capella de Sant Pere del Soler,Ermita,41.839951,1.401272
Capella de Sant Pere d’Oristrell,Ermita,41.709389,1.906164
Capella de Sant Pere d’Orrit,Ermita,42.256569,0.740356
Capella de Sant Pere Màrtir,Ermita,41.973889,2.640278
Capella de Sant Pere Sacarrera,Ermita,41.488096,1.653281
Capella de Sant Pere,Ermita,41.710694,2.727083
Capella de Sant Ponç,Ermita,41.283523,1.604656
Capella de Sant Ponç,Ermita,41.717474,1.421149
Capella de Sant Ponç,Ermita,41.709022,2.672831
Capella de Sant Prim,Ermita,41.959139,1.521611
Capella de Sant Ramon de Portell,Ermita,41.741993,1.383749
Capella de Sant Roc,Ermita,42.08625,2.304833
Capella de Sant Romà de Banat,Ermita,42.344528,1.527222
Capella de Sant Romà,Ermita,41.926379,1.355274
Capella de Sant Salvador del Canadell,Ermita,41.770794,1.946708
Capella de Sant Salvador del Coll de Llanera,Ermita,41.886826,1.462343
Capella de Sant Salvador d’Avençó ,Ermita,41.766090,2.264100
Capella de Sant Salvador,Ermita,41.607222,1.555556
Capella de Sant Salvador,Ermita,41.69751,1.321707
Capella de Sant Salvador,Ermita,41.41264,1.532405
Capella de Sant Sebastià,Ermita,42.374222,0.920333
Capella de Sant Sebastià,Ermita,41.991471,3.015681
Capella de Sant Sebastià,Ermita,42.267500,2.960556
Capella de Sant Sebastià,Ermita,42.343833,3.057083
Capella de Sant Sebastià,Ermita,41.77694,2.73074
Capella de Sant Sebastià,Ermita,41.584835,1.669789
Capella de Sant Simplici,Ermita,42.097819,2.459051
Capella de Sant Tovà,Ermita,41.93425,1.701833
Capella de Sant Valentí de Vilallonga,Ermita,41.702389,1.508511
Capella de Sant Valentí,Ermita,41.721322,1.630837
Capella de Sant Vicenç de Cal Cerdà,Ermita,41.431272,1.65586
Capella de Sant Vicenç de les Roquetes,Ermita,42.02704,2.8504
Capella de Sant Vicenç,Ermita,41.551083,1.4205
Capella de Sant Vicenç,Ermita,41.72075,2.698722
Capella de Santa Anna de Mont-ral,Ermita,41.95304,2.245539
Capella de Santa Anna del Saió,Ermita,41.57698,1.564006
Capella de Santa Cecília de Torreblanca,Ermita,41.923084,1.134583
Capella de Santa Engràcia,Ermita,41.695763,1.321237
Capella de Santa Eugènia del Gomar,Ermita,41.816667,2.159222
Capella de Santa Eulàlia de Pomanyons,Ermita,41.983815,1.203391
Capella de Santa Eulàlia,Ermita,41.914056,1.682528
Capella de Santa Eulàlia,Ermita,41.781869,1.514673
Capella de Santa Fe de Montfred,Ermita,41.559182,1.394024
Capella de Santa Fe de Vilagelans,Ermita,41.976517,2.287889
Capella de Santa Magdalena de Còdol-rodon,Ermita,41.729987,1.60847
Capella de Santa Magdalena de Talamanca,Ermita,41.737528,1.940556
Capella de Santa Magdalena del mas de Vilaprinyó,Ermita,42.030833,1.394444
Capella de Santa Magdalena del Pla,Ermita,41.704272,1.871875
Capella de Santa Magdalena del Puig,Ermita,41.43775,1.848147
Capella de Santa Magdalena del Soler,Ermita,41.756105,1.45914
Capella de Santa Magdalena,Ermita,41.57566,2.172872
Capella de Santa Magdalena,Ermita,41.873739,1.309356
Capella de Santa Magdalena,Ermita,42.0062,1.97968
Capella de Santa Margarida de l’Alou,Ermita,41.848865,1.882861
Capella de Santa Margarida de Viladepost,Ermita,41.868045,1.803182
Capella de Santa Margarida de Vilaltella,Ermita,42.034806,2.124332
Capella de Santa Margarida del Cairat,Ermita,41.56789,1.86615
Capella de Santa Margarida d’Agulladolç,Ermita,41.484231,1.680425
Capella de Santa Maria de la Sanabra,Ermita,41.298261,1.662586
Capella de Santa Maria de la Torre de Soler,Ermita,41.947215,1.628532
Capella de Santa Maria de Malanyanes,Ermita,41.593500,2.355917
Capella de Santa Maria de Palau,Ermita,41.984801,2.25636
Capella de Santa Maria de Romeria,Ermita,42.122307,2.638585
Capella de Santa Maria de Toudell,Ermita,41.56295,1.980095
Capella de Santa Maria de Viladelleva,Ermita,41.820667,1.799504
Capella de Santa Maria del Bon Viatge,Ermita,41.366895,2.056132
Capella de Santa Maria del Camí,Ermita,41.671028,2.286417
Capella de Santa Maria del Castell de Centelles,Ermita,41.769692,2.206212
Capella de Santa Maria del Grau,Ermita,41.750065,1.70885
Capella de Santa Maria del Grauet,Ermita,41.709282,1.618096
Capella de Santa Maria del Villar,Ermita,41.681642,2.171591
Capella de Santa Maria dels Albats,Ermita,41.304977,1.713143
Capella de Santa Maria dels Horts,Ermita,41.342417,1.721503
Capella de Santa Maria d’Orpinell,Ermita,41.5073,1.610508
Capella de Santa Maria,Ermita,41.28575,1.363444
Capella de Santa Susanna,Ermita,41.634083,2.160944
Capella de Santa Susanna,Ermita,41.638129,2.709248
Capella de Santa Tecla la Vella,Ermita,41.119665,1.2589
Capella de Santes Creus,Ermita,41.949706,1.313105
Capella del castell de Cervelló,Ermita,41.387582,1.959558
Capella del Castell de Sant Martí de Riucorb,Ermita,41.560746,1.054085
Capella del Castell de Sentmenat,Ermita,41.616628,2.133166
Capella del cementiri,Ermita,41.606500,1.283917
Capella del Mas Alrà,Ermita,41.878693,2.755172
Capella del Roc de Sant Joan,Ermita,41.978306,1.780833
Capella del Sant Crist del Salvador,Ermita,41.741111,1.845278
Capella dels Reis,Ermita,40.831325,0.524407
Capella dels Sants Metges,Ermita,41.69915,2.846
Capella dels Socors,Ermita,41.71861,2.93191
Capella Paleocristiana de Santa Cristina d’Aro,Ermita,41.816286,2.999985
Capella Suanya,Ermita,41.741111,1.845278
Conjunt eremític de Sant Pau,Ermita,41.359061,1.682678
Ermita de Butsènit,Ermita,41.57995,0.57411
Ermita de la Bovera,Ermita,41.570246,1.158525
Ermita de la Mare de Déu de Barrulles,Ermita,41.305806,1.038054
Ermita de la Mare de Déu de la Misericòrdia i de Sant Roc,Ermita,41.746972,2.403833
Ermita de la Mare de Déu de la Sala,Ermita,41.589409,1.55545
Ermita de la Mare de Déu de la Salut,Ermita,41.449318,2.025408
Ermita de la Mare de Déu de les Peces,Ermita,42.351528,1.518111
Ermita de la Mare de Déu de Loreto,Ermita,40.591796,0.442813
Ermita de la Mare de Déu de l’Abellera ,Ermita,41.304611,1.004
Ermita de la Mare de Déu de Montanyans,Ermita,41.3032,1.63165
Ermita de la Mare de Déu de Sales,Ermita,41.323917,2.028475
Ermita de la Mare de Déu de Serrallonga,Ermita,41.883667,2.699306
Ermita de la Mare de Déu del Carme,Ermita,42.355575,1.582308
Ermita de la Mare de Déu del Pedró,Ermita,41.8978,2.565449
Ermita de la Mare de Déu del Remei,Ermita,41.641583,2.162472
Ermita de la Mare de Déu,Ermita,41.170692,1.403691
Ermita de la Pietat,Ermita,40.632965,0.470334
Ermita de la Trinitat,Ermita,41.238639,1.853833
Ermita de la Verneda de Sant Ponç,Ermita,41.89875,2.3595
Ermita de les Virtuts,Ermita,41.266524,1.152395
Ermita de l’Alegria,Ermita,41.489028,2.271417
Ermita de l’Ascensió,Ermita,41.945576,1.336697
Ermita de Mig Camí,Ermita,40.813333,0.55125
Ermita de Nostra Senyora del Catllar,Ermita,42.358727,2.292018
Ermita de Palau,Ermita,42.307222,2.738944
Ermita de San Antoni,Ermita,42.210917,1.698972
Ermita de Sant Adjutori,Ermita,41.455556,2.114278
Ermita de Sant Agustí de Lloret Salvatge,Ermita,41.985703,2.581238
Ermita de Sant Amanç,Ermita,41.931931,2.638103
Ermita de Sant Andreu,Ermita,41.643861,2.629222
Ermita de Sant Antoni ,Ermita,41.36263,0.66959
Ermita de Sant Antoni de Pàdua ,Ermita,41.142176,1.048312
Ermita de Sant Antoni,Ermita,41.369750,2.002667
Ermita de Sant Bartomeu de Covildases,Ermita,42.123639,2.360917
Ermita de Sant Bartomeu de Matamala,Ermita,42.1207,2.71622
Ermita de Sant Bartomeu,Ermita,41.116444,0.537064
Ermita de Sant Bartomeu,Ermita,41.1595,0.983417
Ermita de Sant Bernabé dels Molins,Ermita,40.82881,0.489844
Ermita de Sant Corneli,Ermita,42.015139,2.423028
Ermita de Sant Cristòfol de Ca n’Anglada,Ermita,41.56122,2.029877
Ermita de Sant Cristòfol del Bosc,Ermita,41.913517,2.880674
Ermita de Sant Domènec,Ermita,41.477554,2.071983
Ermita de Sant Eloi,Ermita,41.650895,1.136103
Ermita de Sant Ermengol,Ermita,41.694275,1.513802
Ermita de Sant Esteve de Ferriols,Ermita,41.528917,1.404182
Ermita de Sant Feliuet de Vilamilans,Ermita,41.510708,2.04622
Ermita de Sant Francesc,Ermita,41.67805,2.80606
Ermita de Sant Grau del Puig,Ermita,42.341722,1.841556
Ermita de Sant Guillem de la Prada,Ermita,42.45925,1.980583
Ermita de Sant Guillem,Ermita,41.719750,2.468861
Ermita de Sant Iscle i Santa Victòria de les Feixes,Ermita,41.467418,2.151181
Ermita de Sant Jaume de la Coma,Ermita,41.785717,2.105542
Ermita de Sant Jaume de les Torres de Cas,Ermita,41.969889,0.793917
Ermita de Sant Jaume de Salem,Ermita,41.77578,1.594099
Ermita de Sant Joan,Ermita,41.368333,0.770833
Ermita de Sant Joan Baptista,Ermita,41.678831,2.798
Ermita de Sant Joan de Carratalà,Ermita,41.485673,0.447108
Ermita de Sant Joan de la Muntanya,Ermita,41.373399,1.129075
Ermita de Sant Joan de Maldanell,Ermita,41.542443,1.047095
Ermita de Sant Joan de Mataplana,Ermita,42.262112,2.061363
Ermita de Sant Joan del Lledó,Ermita,41.380912,1.596013
Ermita de Sant Joan dels Balbs,Ermita,42.172096,2.426061
Ermita de Sant Joan d’Algars,Ermita,41.092876,0.227545
Ermita de Sant Joan,Ermita,41.470556,2.001833
Ermita de Sant Joan,Ermita,42.171207,2.394864
Ermita de Sant Jordi,Ermita,41.887212,0.897843
Ermita de Sant Julià,Ermita,41.969186,2.647638
Ermita de Sant Just i Sant Pastor,Ermita,41.983139,2.6208
Ermita de Sant Llop,Ermita,41.746861,2.540361
Ermita de Sant Llop,Ermita,41.919759,2.734376
Ermita de Sant Macari,Ermita,41.78812,1.281039
Ermita de Sant Mamés,Ermita,42.484177,0.717893
Ermita de Sant Marc,Ermita,41.3465,1.466222
Ermita de Sant Marçal,Ermita,41.695044,1.168364
Ermita de Sant Martí de Guixers,Ermita,42.135857,1.644192
Ermita de Sant Martí de Mata,Ermita,41.572917,2.458944
Ermita de Sant Martí,Ermita,41.777944,2.379889
Ermita de Sant Martí,Ermita,41.861948,1.663601
Ermita de Sant Mateu,Ermita,41.516904,2.328822
Ermita de Sant Maurici de Calç,Ermita,42.099917,2.7275
Ermita de Sant Medir,Ermita,41.443653,2.121346
Ermita de Sant Mer,Ermita,42.091804,2.8555
Ermita de Sant Miquel de la Roca,Ermita,42.184444,2.781944
Ermita de Sant Miquel de la Tosca,Ermita,41.36146,0.94953
Ermita de Sant Miquel de les Planes,Ermita,41.801224,1.744415
Ermita de Sant Miquel de l’Arn,Ermita,41.630928,2.148031
Ermita de Sant Miquel de Mata,Ermita,41.569108,2.464026
Ermita de Sant Miquel de Montclar,Ermita,41.467774,1.346723
Ermita de Sant Miquel de Segur,Ermita,41.195111,1.609139
Ermita de Sant Miquel de Vilageriu,Ermita,41.839171,2.209556
Ermita de Sant Miquel del Mas d’en Forn,Ermita,41.920639,1.365806
Ermita de Sant Miquel Sesvinyes,Ermita,42.16026,2.73304
Ermita de Sant Miquel,Ermita,41.364444,1.494194
Ermita de Sant Miquel,Ermita,41.810486,1.274269
Ermita de Sant Miquel,Ermita,41.777636,1.123379
Ermita de Sant Miquel,Ermita,41.613198,1.137243
Ermita de Sant Nicolau ,Ermita,41.677667,2.260467
Ermita de Sant Nicolau del Tretzè,Ermita,41.480367,1.741019
Ermita de Sant Nicolau,Ermita,42.086879,2.68374
Ermita de Sant Patllari,Ermita,42.112083,2.711639
Ermita de Sant Pau de Riu-sec,Ermita,41.514036,2.103469
Ermita de Sant Pau,Ermita,41.243954,0.946069
Ermita de Sant Pere ,Ermita,42.01014,1.583182
Ermita de Sant Pere dels Pastors,Ermita,41.780907,1.304551
Ermita de Sant Pere d’Ullastre,Ermita,41.600611,2.099889
Ermita de Sant Pere Sestronques,Ermita,41.939867,2.661969
Ermita de Sant Ponç,Ermita,41.692600,2.497450
Ermita de Sant Quintí,Ermita,41.445385,1.993054
Ermita de Sant Quintí,Ermita,42.134996,1.406091
Ermita de Sant Quirc de Durro,Ermita,42.495098,0.811626
Ermita de Sant Quirc de Taüll,Ermita,42.513592,0.85276
Ermita de Sant Quirze de Subiradells,Ermita,41.877453,2.302039
Ermita de Sant Quirze i Santa Julita de Merlant,Ermita,42.148611,2.709472
Ermita de Sant Quirze,Ermita,41.70286,2.83325
Ermita de Sant Roc,Ermita,41.751163,1.192237
Ermita de Sant Roc,Ermita,41.763988,2.656274
Ermita de Sant Romà,Ermita,41.92799,2.698
Ermita de Sant Romà,Ermita,41.795738,1.289949
Ermita de Sant Salvador ,Ermita,41.49148,0.87408
Ermita de Sant Salvador de Predanies,Ermita,42.363182,1.831758
Ermita de Sant Salvador del Coll de l’Aguda,Ermita,41.817993,1.405494
Ermita de Sant Salvador dels Arenys,Ermita,41.271005,1.955256
Ermita de Sant Salvador d’Irgo,Ermita,42.437595,0.769086
Ermita de Sant Salvador Vell del Quer,Ermita,41.84729,1.762356
Ermita de Sant Salvador,Ermita,41.909445,0.645833
Ermita de Sant Sebastià de les Brucardes,Ermita,41.738896,1.883767
Ermita de Sant Sebastià,Ermita,41.934019,2.062746
Ermita de Sant Sebastià,Ermita,42.008932,2.01801
Ermita de Sant Sebastià,Ermita,42.153369,2.83105
Ermita de Sant Segimon del Bosc,Ermita,41.811806,2.561583
Ermita de Sant Silvestre,Ermita,41.369988,1.931829
Ermita de Sant Simeó estilita,Ermita,41.640586,1.733542
Ermita de Sant Simeó,Ermita,41.797096,1.311533
Ermita de Sant Valentí de les Brucardes,Ermita,41.746859,1.88402
Ermita de Sant Valerià de Robers,Ermita,41.60429,2.21257
Ermita de Sant Vicenç de Sarriera,Ermita,41.579389,2.083194
Ermita de Sant Vicenç del Castell,Ermita,41.473972,1.97375
Ermita de Santa Agnès,Ermita,41.372053,1.432623
Ermita de Santa Anastàsia,Ermita,41.770611,2.390528
Ermita de Santa Anna de Barberà,Ermita,41.384166,1.213822
Ermita de Santa Anna de Pedrafita,Ermita,41.672833,1.584722
Ermita de Santa Anna del Grau,Ermita,42.026711,2.533471
Ermita de Santa Bàrbara del Racó,Ermita,42.135666,1.400244
Ermita de Santa Bàrbara,Ermita,41.926292,2.618092
Ermita de Santa Bàrbara,Ermita,42.359194,1.867972
Ermita de Santa Bàrbara,Ermita,41.797996,2.578618
Ermita de Santa Brígida,Ermita,42.020673,2.610503
Ermita de Santa Caterina,Ermita,42.058114,3.134449
Ermita de Santa Cecília de Ragord,Ermita,42.196567,2.29224
Ermita de Santa Cristina,Ermita,41.271806,1.440417
Ermita de Santa Eugènia,Ermita,42.239972,2.917222
Ermita de Santa Eugènia,Ermita,41.689640,2.321190
Ermita de Santa Llúcia,Ermita,42.030861,2.187000
Ermita de Santa Madrona,Ermita,40.910561,0.252125
Ermita de Santa Magdalena de Noves,Ermita,42.098242,2.760005
Ermita de Santa Magdalena de Puigbarral,Ermita,41.589223,2.027763
Ermita de Santa Magdalena del Sàlzer,Ermita,42.111043,1.37238
Ermita de Santa Margarida de Peranera,Ermita,42.442665,0.823441
Ermita de Santa Margarida de Vallors,Ermita,41.883639,2.549778
Ermita de Santa Margarida del Mujal,Ermita,41.544639,2.036
Ermita de Santa Margarida,Ermita,41.874012,2.750396
Ermita de Santa Maria de Campanyà,Ermita,41.481535,2.058001
Ermita de Santa Maria de les Feixes,Ermita,41.479475,2.144531
Ermita de Santa Maria,Ermita,41.842724,1.359797
Ermita de Santa Perpètua,Ermita,41.997889,2.195833
Ermita de Santa Susanna,Ermita,41.879085,1.338319
Ermita de Togores,Ermita,41.576619,2.110014
Ermita de Vallespinosa,Ermita,41.444677,1.348707
Ermita del Coll de l’Alba,Ermita,40.816194,0.571056
Ermita del Mas d’en Bosch ,Ermita,41.085893,1.09875
Ermita del Pedregal,Ermita,41.648124,1.158281
Ermita del Remei,Ermita,41.269594,1.142068
Ermita del Roser,Ermita,41.217482,1.210156
Ermita dels Apòstols,Ermita,42.255306,2.798222
Ermita dels Sants Metges,Ermita,41.42174,0.9344
